Dátum,Év,Város,Kimenetel,Baleset típus,Ok-csoport,Ok,LAT,LON,Meghaltak,Súlyos,Könnyű,Résztvevők száma,geometry,Baleset típus főcsoport,street
2012-01-01,2012,Budapest VIII. kerület,könnyű sérüléses,"Egyéb, azonos irányba haladó kanyarodó járművek  ütközése.","irányváltoztatási, haladási, bekanyarodási hiba",követés távolság be nem tartása,47.4956861111111,19.0842722222222,0,0,1,2,POINT (652774.8035124071 239083.86153435794),gyalogos,['Fiumei út']
2012-01-03,2012,Budapest VIII. kerület,könnyű sérüléses,Egyéb közlekedési baleset gyalogossal,gyalogosok hibája,egyéb,47.4962444444444,19.0704333333333,0,0,1,2,POINT (651732.0782501437 239145.55053422853),gyalogos,"['0809 - Blaha Lujza tér M (2062)', ' Blaha Lujza tér']"
2012-01-04,2012,Budapest VIII. kerület,könnyű sérüléses,Gyalogos elütése útkereszteződésben kijelölt gyalogos-átkelőhelyen,gyalogosok hibája,tilos jelzésen való áthaladás,47.4927416666667,19.0710083333333,0,0,1,2,POINT (651775.5136283527 238756.1405311049),gyalogos,"['Rákóczi tér M', ' József körút']"
2012-01-06,2012,Budapest VIII. kerület,könnyű sérüléses,Gyalogos elütése útkereszteződésben nem kijelölt gyalogos-átkelőhelyen,elsőbbség meg nem adása,a gyalogosnak kanyarodáskor,47.4878444444444,19.0763944444444,0,0,1,1,POINT (652181.5530541653 238211.82162363426),gyalogos,[' Nap utca']
2012-01-15,2012,Budapest VIII. kerület,könnyű sérüléses,Gyalogos elütése útkereszteződésben kijelölt gyalogos-átkelőhelyen,gyalogosok hibája,tilos jelzésen való áthaladás,47.4895555555556,19.070525,0,0,1,2,POINT (651739.1937311282 238401.9137501973),gyalogos,"['Harminckettesek tere', ' József körút']"
2012-01-17,2012,Budapest VIII. kerület,könnyű sérüléses,"Keresztirányból érkező, egyenesen haladó járművek ütközése",sebesség nem megfelelő alkalmazása,elsőbbségadásnál,47.4921944444444,19.082025,0,0,1,3,POINT (652605.6499496798 238695.5997251498),jármű-jármű,[' Szerdahelyi utca']
2012-01-25,2012,Budapest VIII. kerület,könnyű sérüléses,"Keresztirányból érkező járművek ütközése, az egyik jármű BALRA  kanyarodik.",elsőbbség meg nem adása,a közúti jelzőtáblák utasítása ellenére,47.48966666666671,19.073025,0,0,1,2,POINT (651927.5772120282 238414.32245441785),jármű-jármű,"['e-töltőpont', ' Baross utca']"
2012-01-26,2012,Budapest VIII. kerület,súlyos sérüléses,"Gyalogos elütése az úttesten, tömegközlekedési jármű megállójában",sebesség nem megfelelő alkalmazása,"az útviszonyokhoz (az út vonalvezetéséhez, útburkolat minőségéhez)",47.4894444444444,19.0706083333333,0,1,0,2,POINT (651745.4767912133 238389.5627260215),gyalogos,['Baross utca']
2012-01-29,2012,Budapest VIII. kerület,könnyű sérüléses,"Utoléréses baleset két vagy több résztvevővel, az egyik megállt",egyéb,"rendőr, vagy lámpa jelzésre nem állt  meg",47.4897722222222,19.0742472222222,0,0,1,2,POINT (652019.6736436381 238426.0871346269),jármű-jármű,"[' Német utca', ' Józsefváros']"
2012-01-30,2012,Budapest VIII. kerület,könnyű sérüléses,Egyéb közlekedési baleset gyalogossal,elsőbbség meg nem adása,a gyalogosnak kanyarodáskor,47.4869361111111,19.0774472222222,0,0,1,2,POINT (652260.9249197177 238110.86639072886),jármű-jármű,[' Leonardo da Vinci utca']
2012-01-30,2012,Budapest VIII. kerület,súlyos sérüléses,Gyalogos elütése útkereszteződésen kívül,elsőbbség meg nem adása,a gyalogosnak kanyarodáskor,47.4882222222222,19.1005722222222,0,1,0,2,POINT (654003.4987368722 238254.75134594573),gyalogos,"['239-es épület', ' 27', ' Kőbányai út']"
2012-01-30,2012,Budapest VIII. kerület,súlyos sérüléses,"Gyalogos elütése nem útkereszteződésben, kijelölt gyalogos-átkelőhelyen",gyalogosok hibája,tilos jelzésen való áthaladás,47.4995361111111,19.0820944444444,0,1,0,2,POINT (652610.5326528017 239511.81403909333),gyalogos,[' Baross tér']
2012-01-30,2012,Budapest VIII. kerület,könnyű sérüléses,"Egyéb, azonos irányba haladó kanyarodó járművek  ütközése.","irányváltoztatási, haladási, bekanyarodási hiba",egyenes irányban haladó jármű forgalmának akadályozása,47.4882222222222,19.1005722222222,0,0,4,2,POINT (654003.4987368722 238254.75134594573),gyalogos,239-es épület  27  Kőbányai út
2012-02-04,2012,Budapest VIII. kerület,könnyű sérüléses,"Utoléréses baleset két vagy több résztvevővel, az egyik megállt",sebesség nem megfelelő alkalmazása,"az útviszonyokhoz (az út vonalvezetéséhez, útburkolat minőségéhez)",47.4998333333333,19.1061777777778,0,0,1,2,POINT (654424.9642388794 239545.91548983753),jármű-jármű,[' Százados út']
2012-02-05,2012,Budapest VIII. kerület,könnyű sérüléses,"Szembe haladó járművek ütközése útkereszteződésben, az egyik résztvevő BALRA kanyarodik",elsőbbség meg nem adása,a közúti jelzőtáblák utasítása ellenére,47.48208333333329,19.1038027777778,0,0,1,2,POINT (654247.4253680382 237572.42760882215),jármű-jármű,"['Vajda Péter utca', ' Tisztviselőtelep']"
2012-02-05,2012,Budapest VIII. kerület,könnyű sérüléses,Egyéb szembe haladó járművek ütközése,sebesség nem megfelelő alkalmazása,"az útviszonyokhoz (az út vonalvezetéséhez, útburkolat minőségéhez)",47.4996305555556,19.0829194444444,0,0,1,1,POINT (652672.6841473966 239522.34092304917),jármű-jármű,['Kerepesi út']
2012-02-09,2012,Budapest VIII. kerület,súlyos sérüléses,Gyalogos elütése útkereszteződésben kijelölt gyalogos-átkelőhelyen,gyalogosok hibája,tilos jelzésen való áthaladás,47.4962444444444,19.0704333333333,0,1,0,2,POINT (651732.0782501437 239145.55053422853),gyalogos,0809 - Blaha Lujza tér M (2062)  Blaha Lujza tér
2012-02-17,2012,Budapest VIII. kerület,könnyű sérüléses,Gyalogos elütése útkereszteződésben nem kijelölt gyalogos-átkelőhelyen,gyalogosok hibája,tiltott helyen való áthaladás,47.4893888888889,19.0781444444444,0,0,1,2,POINT (652313.3634972712 238383.57377972204),gyalogos,[' Baross utca']
2012-02-19,2012,Budapest VIII. kerület,könnyű sérüléses,"Utoléréses baleset két vagy több résztvevővel, az egyik megállt","irányváltoztatási, haladási, bekanyarodási hiba",követés távolság be nem tartása,47.49953888888889,19.0829416666667,0,0,2,2,POINT (652674.36286374 239512.15057812067),jármű-jármű,"['Keleti pályaudvar', ' Kerepesi út']"
2012-02-19,2012,Budapest VIII. kerület,könnyű sérüléses,Egyéb közlekedési baleset gyalogossal,gyalogosok hibája,tilos jelzésen való áthaladás,47.4755861111111,19.0986305555556,0,0,1,2,POINT (653858.0805668101 236849.8378957737),gyalogos,"['Nemzeti Dohánybolt', ' Népliget aluljáró', ' Szent László Kórház']"
2012-02-21,2012,Budapest VIII. kerület,könnyű sérüléses,Gyalogos elütése útkereszteződésben kijelölt gyalogos-átkelőhelyen,elsőbbség meg nem adása,gyalogosoknak kijelölt gyalogátkelőhelyen,47.4927416666667,19.0710083333333,0,0,1,1,POINT (651775.5136283527 238756.1405311049),gyalogos,Rákóczi tér M  József körút
2012-02-22,2012,Budapest VIII. kerület,könnyű sérüléses,"Azonos irányból érkező járművek ütközése útkereszteződésben, az egyik jármű JOBBRA kanyarodik","irányváltoztatási, haladási, bekanyarodási hiba",forgalmi sáv szabálytalan változtatása,47.4755861111111,19.0986305555556,0,0,1,2,POINT (653858.0805668101 236849.8378957737),jármű-jármű,Nemzeti Dohánybolt  Népliget aluljáró  Szent László Kórház
2012-02-23,2012,Budapest VIII. kerület,könnyű sérüléses,Egyéb közlekedési baleset gyalogossal,gyalogosok hibája,tiltott helyen való áthaladás,47.4961944444444,19.0709138888889,0,0,1,2,POINT (651768.287500613 239140.00200394806),gyalogos,"[""McDonald's"", ' 8', ' József körút', ' Józsefváros']"
2012-02-24,2012,Budapest VIII. kerület,könnyű sérüléses,Egyéb baleset azonos irányba egyenesen haladó járművek között,"irányváltoztatási, haladási, bekanyarodási hiba",forgalmi sáv szabálytalan változtatása,47.48,19.0865805555556,0,0,1,2,POINT (652949.5756276142 237340.0392279295),jármű-jármű,"['Barkácsbolt', ' kulcsmásolás', ' Üllői út']"
2012-02-26,2012,Budapest VIII. kerület,könnyű sérüléses,Egyéb közlekedési baleset gyalogossal,egyéb,egyéb,47.4935555555556,19.0824138888889,0,0,1,1,POINT (652634.8876763324 238846.93416104763),jármű-jármű,['Népszínház utca']
2012-02-27,2012,Budapest VIII. kerület,könnyű sérüléses,"Keresztirányból érkező, egyenesen haladó járművek ütközése",elsőbbség meg nem adása,a közúti jelzőtáblák utasítása ellenére,47.4908888888889,19.084525,0,0,1,2,POINT (652794.0946564808 238550.5379874023),jármű-jármű,[' Magdolna utca']
2012-02-27,2012,Budapest VIII. kerület,súlyos sérüléses,Azonos irányból érkező járművek ütközése a belső sávban haladó jármű JOBBRA kanyarodik,"irányváltoztatási, haladási, bekanyarodási hiba",forgalmi sáv szabálytalan változtatása,47.4892527777778,19.086375,0,1,0,2,POINT (652933.58573788 238368.70889307404),jármű-jármű,[' Karácsony Sándor utca']
2012-02-27,2012,Budapest VIII. kerület,súlyos sérüléses,"A menetirány szerint JOBB oldalon álló, várakozó jármű, egyéb akadály előtt (mögött) áthaladó gyalogos elütése",gyalogosok hibája,"álló jármű vagy oszlop (fa, egyéb akadály) előtt való áthaladás",47.4867555555556,19.0766,0,1,0,2,POINT (652197.0865833953 238090.76988419148),gyalogos,[' Práter utca']
2012-02-27,2012,Budapest VIII. kerület,könnyű sérüléses,"Pályaelhagyás járművel egyenes úton, menetirány szerinti JOBB oldalon",sebesség nem megfelelő alkalmazása,"az útviszonyokhoz (az út vonalvezetéséhez, útburkolat minőségéhez)",47.4793,19.0954055555556,0,0,1,1,POINT (653614.749463188 237262.57782800717),egy jármű,"['Magyarok Nagyasszonya-templom', ' 1', ' Magyarok Nagyasszonya tér']"
2012-02-28,2012,Budapest VIII. kerület,könnyű sérüléses,Gyalogos elütése útkereszteződésben nem kijelölt gyalogos-átkelőhelyen,egyéb,"figyelmetlen, gondatlan vezetés",47.4773888888889,19.0996388888889,0,0,1,1,POINT (653933.9525473296 237050.31032996584),gyalogos,[' Villám utca']
2012-03-02,2012,Budapest VIII. kerület,könnyű sérüléses,"Keresztirányból érkező járművek ütközése, az egyik jármű BALRA  kanyarodik.",elsőbbség meg nem adása,a közúti jelzőtáblák utasítása ellenére,47.4893888888889,19.0781444444444,0,0,1,2,POINT (652313.3634972712 238383.57377972204),jármű-jármű, Baross utca
2012-03-02,2012,Budapest VIII. kerület,könnyű sérüléses,"Utoléréses baleset két vagy több résztvevővel, az egyik megállt","irányváltoztatási, haladási, bekanyarodási hiba",követés távolság be nem tartása,47.49953888888889,19.0829416666667,0,0,1,3,POINT (652674.36286374 239512.15057812067),jármű-jármű,Keleti pályaudvar  Kerepesi út
2012-03-07,2012,Budapest VIII. kerület,könnyű sérüléses,ütközés tolató járművel,"irányváltoztatási, haladási, bekanyarodási hiba",szabálytalan hátramenet,47.4853055555556,19.0899972222222,0,0,1,2,POINT (653206.7721630579 237930.0146417545),jármű-jármű,"[' Diószegi Sámuel utca', ' Orczy Fórum Városközpont']"
2012-03-09,2012,Budapest VIII. kerület,könnyű sérüléses,Gyalogos elütése útkereszteződésben kijelölt gyalogos-átkelőhelyen,elsőbbség meg nem adása,gyalogosoknak kijelölt gyalogátkelőhelyen,47.488,19.1018583333333,0,0,1,1,POINT (654100.4328229225 238230.11105041066),gyalogos,"['B1-es vásárcsarnok', ' Kőbányai út']"
2012-03-13,2012,Budapest VIII. kerület,könnyű sérüléses,"Keresztirányból érkező, egyenesen haladó járművek ütközése",elsőbbség meg nem adása,a jobbról érkező járműnek,47.4868027777778,19.0830916666667,0,0,3,2,POINT (652686.2892408316 238096.2155288859),jármű-jármű,[' Práter utca']
2012-03-13,2012,Budapest VIII. kerület,könnyű sérüléses,"Keresztirányból érkező, egyenesen haladó járművek ütközése",elsőbbség meg nem adása,a jobbról érkező járműnek,47.4868333333333,19.0850472222222,0,0,1,2,POINT (652833.6560716158 238099.67946402304),jármű-jármű,[' Illés utca']
2012-03-16,2012,Budapest VIII. kerület,könnyű sérüléses,"Egyéb, azonos irányba haladó kanyarodó járművek  ütközése.",elsőbbség meg nem adása,a forgalomba való bekapcsolódáskor,47.4969,19.0699055555556,0,0,1,2,POINT (651692.2927220535 239218.4211599116),gyalogos,"['Blaha Lujza tér', ' Rákóczi út']"
2012-03-16,2012,Budapest VIII. kerület,könnyű sérüléses,"Keresztirányból érkező járművek ütközése, az egyik jármű BALRA  kanyarodik.",egyéb,"rendőr, vagy lámpa jelzésre nem állt  meg",47.4755861111111,19.0986305555556,0,0,2,2,POINT (653858.0805668101 236849.8378957737),jármű-jármű,Nemzeti Dohánybolt  Népliget aluljáró  Szent László Kórház
2012-03-19,2012,Budapest VIII. kerület,könnyű sérüléses,"Keresztirányból érkező, egyenesen haladó járművek ütközése",egyéb,"rendőr, vagy lámpa jelzésre nem állt  meg",47.4964444444444,19.1088888888889,0,0,4,2,POINT (654629.510893739 239169.30862520996),jármű-jármű,"['Aréna Business Campus', ' Hős utca']"
2012-03-19,2012,Budapest VIII. kerület,könnyű sérüléses,Gyalogos elütése útkereszteződésben nem kijelölt gyalogos-átkelőhelyen,gyalogosok hibája,"vigyázatlan, hirtelen lelépés az úttestre",47.4893888888889,19.0781444444444,0,0,1,2,POINT (652313.3634972712 238383.57377972204),gyalogos, Baross utca
2012-03-26,2012,Budapest VIII. kerület,súlyos sérüléses,"A menetirány szerint JOBB oldalon álló, várakozó jármű, egyéb akadály előtt (mögött) áthaladó gyalogos elütése",gyalogosok hibája,"álló jármű vagy oszlop (fa, egyéb akadály) előtt való áthaladás",47.4893888888889,19.0781444444444,0,1,0,3,POINT (652313.3634972712 238383.57377972204),gyalogos, Baross utca
2012-03-28,2012,Budapest VIII. kerület,könnyű sérüléses,Gyalogos elütése útkereszteződésben nem kijelölt gyalogos-átkelőhelyen,elsőbbség meg nem adása,a gyalogosnak kanyarodáskor,47.4898305555556,19.0706055555556,0,0,1,1,POINT (651745.2553734329 238432.48861690404),gyalogos,"['József körút - Baross utca', ' József körút']"
2012-04-05,2012,Budapest VIII. kerület,könnyű sérüléses,"Keresztirányból érkező járművek ütközése, az egyik jármű BALRA  kanyarodik.",egyéb,"rendőr, vagy lámpa jelzésre nem állt  meg",47.4904277777778,19.1087555555556,0,0,1,2,POINT (654619.9799032396 238500.39669250627),jármű-jármű,['Hungária körút']
2012-04-06,2012,Budapest VIII. kerület,könnyű sérüléses,"Egyenes úton szembe haladó járművek ütközése, az egyik résztvevő előz  vagy forgalmi sávot vált","irányváltoztatási, haladási, bekanyarodási hiba",nem a kijelölt forgalmi sávban való közlekedés,45.0371444444444,10.7874805555556,0,0,3,2,POINT (0.23896893626079 144.0263402867131),jármű-jármű,[]
2012-04-09,2012,Budapest VIII. kerület,könnyű sérüléses,"Gyalogos elütése nem útkereszteződésben, kijelölt gyalogos-átkelőhelyen",gyalogosok hibája,tilos jelzésen való áthaladás,47.4962444444444,19.0704333333333,0,0,1,2,POINT (651732.0782501437 239145.55053422853),gyalogos,0809 - Blaha Lujza tér M (2062)  Blaha Lujza tér
2012-04-11,2012,Budapest VIII. kerület,könnyű sérüléses,"Egyéb, azonos irányba haladó kanyarodó járművek  ütközése.","irányváltoztatási, haladási, bekanyarodási hiba",követés távolság be nem tartása,47.4904277777778,19.1087555555556,0,0,1,2,POINT (654619.9799032396 238500.39669250627),gyalogos,Hungária körút
2012-04-13,2012,Budapest VIII. kerület,súlyos sérüléses,Egyéb közlekedési baleset gyalogossal,"irányváltoztatási, haladási, bekanyarodási hiba",szabálytalan hátramenet,47.48686666666669,19.0850388888889,0,1,0,1,POINT (652833.0263527782 238103.3850052834),jármű-jármű,[' Illés utca']
2012-04-13,2012,Budapest VIII. kerület,könnyű sérüléses,"Utoléréses baleset két vagy több résztvevővel, az egyik megállt","irányváltoztatási, haladási, bekanyarodási hiba",követés távolság be nem tartása,47.4897694444444,19.1087305555556,0,0,1,4,POINT (654618.1523910619 238427.20496334793),jármű-jármű,"['Hidegkuti Nándor Stadion', ' Hungária körút']"
2012-04-17,2012,Budapest VIII. kerület,súlyos sérüléses,Egyéb közlekedési baleset gyalogossal,egyéb,"figyelmetlen, gondatlan vezetés",47.4904277777778,19.1087555555556,0,1,0,1,POINT (654619.9799032396 238500.39669250627),jármű-jármű,Hungária körút
2012-04-19,2012,Budapest VIII. kerület,súlyos sérüléses,"Keresztirányból érkező, egyenesen haladó járművek ütközése",egyéb,"rendőr, vagy lámpa jelzésre nem állt  meg",47.4935805555556,19.0710472222222,0,1,0,2,POINT (651778.4171099035 238849.40503939544),jármű-jármű,[' József körút']
2012-04-21,2012,Budapest VIII. kerület,könnyű sérüléses,"Azonos irányból érkező járművek ütközése útkereszteződésben, az egyik jármű BALRA kanyarodik","irányváltoztatási, haladási, bekanyarodási hiba",szabálytalan megfordulás,47.4927416666667,19.0710083333333,0,0,1,3,POINT (651775.5136283527 238756.1405311049),jármű-jármű,Rákóczi tér M  József körút
2012-04-23,2012,Budapest VIII. kerület,súlyos sérüléses,"Gyalogos elütése nem útkereszteződésben, kijelölt gyalogos-átkelőhelyen",elsőbbség meg nem adása,gyalogosoknak kijelölt gyalogátkelőhelyen,47.4865083333333,19.1076666666667,0,1,0,1,POINT (654538.2575529236 238064.5896255088),gyalogos,"['Kőbányai út', ' Taraliget lakópark']"
2012-04-24,2012,Budapest VIII. kerület,könnyű sérüléses,"Azonos irányból érkező járművek ütközése útkereszteződésben, mindkét jármű JOBBRA kanyarodik","irányváltoztatási, haladási, bekanyarodási hiba",forgalmi sáv szabálytalan változtatása,47.4996111111111,19.0806083333333,0,0,1,2,POINT (652498.5645284301 239520.10524671202),jármű-jármű,"['Baross Gábor', ' Baross tér']"
2012-04-26,2012,Budapest VIII. kerület,könnyű sérüléses,"Keresztirányból érkező szembe haladó járművek ütközése, az egyik jármű JOBBRA kanyarodik","irányváltoztatási, haladási, bekanyarodási hiba",a balra kanyarodó jármű vezetője a  szemben egyenesen haladó és jobbra kanyarodó járműnek nem biztosított elsőbbséget,47.4904277777778,19.1087555555556,0,0,1,2,POINT (654619.9799032396 238500.39669250627),jármű-jármű,Hungária körút
2012-04-28,2012,Budapest VIII. kerület,könnyű sérüléses,Utoléréses ütközés két vagy több mozgásban lévő résztvevővel,egyéb,"figyelmetlen, gondatlan vezetés",47.4969,19.0699055555556,0,0,1,2,POINT (651692.2927220535 239218.4211599116),jármű-jármű,Blaha Lujza tér  Rákóczi út
2012-05-04,2012,Budapest VIII. kerület,könnyű sérüléses,Utoléréses ütközés két vagy több mozgásban lévő résztvevővel,"irányváltoztatási, haladási, bekanyarodási hiba",követés távolság be nem tartása,47.4926111111111,19.0876083333333,0,0,1,6,POINT (653026.3375678236 238742.1177923598),jármű-jármű,"['Magdolna utca', ' Fiumei út']"
2012-05-04,2012,Budapest VIII. kerület,könnyű sérüléses,ütközés két jármű egyidejű forgalmi sávváltása közben,"irányváltoztatási, haladási, bekanyarodási hiba",forgalmi sáv szabálytalan változtatása,47.4869472222222,19.0673083333333,0,0,1,2,POINT (651496.8715055173 238111.869005999),jármű-jármű,"['Star Park - Üllői 27', ' 27', ' Üllői út']"
2012-05-08,2012,Budapest VIII. kerület,könnyű sérüléses,Gyalogos elütése útkereszteződésben nem kijelölt gyalogos-átkelőhelyen,elsőbbség meg nem adása,a gyalogosnak kanyarodáskor,47.4946027777778,19.0646777777778,0,0,1,1,POINT (651298.4610701749 238962.93244612616),gyalogos,[' Szentkirályi utca']
2012-05-09,2012,Budapest VIII. kerület,könnyű sérüléses,"Keresztirányból érkező, egyenesen haladó járművek ütközése",elsőbbség meg nem adása,a forgalomba való bekapcsolódáskor,47.4947583333333,19.0750861111111,0,0,1,2,POINT (652082.6997956743 238980.44014475757),jármű-jármű,"[' Fecske utca', ' Józsefváros']"
2012-05-11,2012,Budapest VIII. kerület,könnyű sérüléses,"Gyalogos elütése nem útkereszteződésben, kijelölt gyalogos-átkelőhelyen",gyalogosok hibája,tilos jelzésen való áthaladás,47.49953888888889,19.0829416666667,0,0,1,2,POINT (652674.36286374 239512.15057812067),gyalogos,Keleti pályaudvar  Kerepesi út
2012-05-11,2012,Budapest VIII. kerület,könnyű sérüléses,Utoléréses ütközés két vagy több mozgásban lévő résztvevővel,"irányváltoztatási, haladási, bekanyarodási hiba",követés távolság be nem tartása,47.4960055555556,19.0839222222222,0,0,3,2,POINT (652748.4162776861 239119.36388455855),jármű-jármű,"['Dologház utca', ' Fiumei út']"
2012-05-11,2012,Budapest VIII. kerület,könnyű sérüléses,"A menetirány szerint JOBB oldalon álló, várakozó jármű, egyéb akadály előtt (mögött) áthaladó gyalogos elütése",gyalogosok hibája,"álló jármű vagy oszlop (fa, egyéb akadály) előtt való áthaladás",47.4843694444444,19.0799694444444,0,0,1,2,POINT (652451.1108196748 237825.5905150172),gyalogos,[' Szigony utca']
2012-05-11,2012,Budapest VIII. kerület,könnyű sérüléses,"Keresztirányból érkező, egyenesen haladó járművek ütközése",elsőbbség meg nem adása,a forgalomba való bekapcsolódáskor,47.4970555555556,19.077275,0,0,1,2,POINT (652247.5334067508 239235.89279485727),jármű-jármű,"['Erkel Színház', ' 30', ' II. János Pál pápa tér']"
2012-05-13,2012,Budapest VIII. kerület,könnyű sérüléses,"Szembe haladó járművek ütközése útkereszteződésben, az egyik résztvevő BALRA kanyarodik","irányváltoztatási, haladási, bekanyarodási hiba",a balra kanyarodó jármű vezetője a  szemben egyenesen haladó és jobbra kanyarodó járműnek nem biztosított elsőbbséget,47.4893888888889,19.0781444444444,0,0,3,3,POINT (652313.3634972712 238383.57377972204),jármű-jármű, Baross utca
2012-05-14,2012,Budapest VIII. kerület,könnyű sérüléses,Gyalogos elütése útkereszteződésben kijelölt gyalogos-átkelőhelyen,elsőbbség meg nem adása,gyalogosoknak kijelölt gyalogátkelőhelyen,47.4800083333333,19.0865722222222,0,0,1,1,POINT (652948.9471061957 237340.96537936313),gyalogos,"['Barkácsbolt', ' kulcsmásolás', ' Üllői út']"
2012-05-16,2012,Budapest VIII. kerület,könnyű sérüléses,"Egyéb, azonos irányba haladó kanyarodó járművek  ütközése.","irányváltoztatási, haladási, bekanyarodási hiba",követés távolság be nem tartása,47.4936916666667,19.1077194444444,0,0,1,2,POINT (654541.6305421512 238863.2004967608),gyalogos,[' Százados út']
2012-05-17,2012,Budapest VIII. kerület,könnyű sérüléses,"Azonos irányból érkező járművek ütközése útkereszteződésben, az egyik jármű BALRA kanyarodik","irányváltoztatási, haladási, bekanyarodási hiba","jobbra kis ívű, balra nagy ívű kanyarodási szabály megszegése",47.4969,19.0699055555556,0,0,2,2,POINT (651692.2927220535 239218.4211599116),jármű-jármű,Blaha Lujza tér  Rákóczi út
2012-05-21,2012,Budapest VIII. kerület,könnyű sérüléses,Menetirány szerint a JOBB oldalon várakozó járműnek ütközés,egyéb,egyéb,47.4844416666667,19.0855555555556,0,0,1,2,POINT (652872.0892630961 237833.80394692282),jármű-jármű,"['ELTE Fűvészkert', ' 25', ' Illés utca']"
2012-05-21,2012,Budapest VIII. kerület,könnyű sérüléses,Utoléréses ütközés két vagy több mozgásban lévő résztvevővel,"irányváltoztatási, haladási, bekanyarodási hiba",követés távolság be nem tartása,47.4904277777778,19.1087555555556,0,0,1,2,POINT (654619.9799032396 238500.39669250627),jármű-jármű,Hungária körút
2012-05-22,2012,Budapest VIII. kerület,könnyű sérüléses,Azonos irányból érkező járművek ütközése a belső sávban haladó jármű JOBBRA kanyarodik,"irányváltoztatási, haladási, bekanyarodási hiba","jobbra kis ívű, balra nagy ívű kanyarodási szabály megszegése",47.49953888888889,19.0829416666667,0,0,2,2,POINT (652674.36286374 239512.15057812067),jármű-jármű,Keleti pályaudvar  Kerepesi út
2012-05-25,2012,Budapest VIII. kerület,súlyos sérüléses,Egyéb közlekedési baleset gyalogossal,gyalogosok hibája,tiltott helyen való áthaladás,47.4962444444444,19.0704333333333,0,1,0,2,POINT (651732.0782501437 239145.55053422853),gyalogos,0809 - Blaha Lujza tér M (2062)  Blaha Lujza tér
2012-05-29,2012,Budapest VIII. kerület,könnyű sérüléses,Gyalogos elütése útkereszteződésben kijelölt gyalogos-átkelőhelyen,elsőbbség meg nem adása,a gyalogosnak kanyarodáskor,47.4884333333333,19.08765,0,0,1,1,POINT (653029.7093684154 238277.6543324216),gyalogos,"['Kálvária téri Könyvtár', ' 12', ' Kálvária tér']"
2012-05-29,2012,Budapest VIII. kerület,könnyű sérüléses,"Keresztirányból érkező, egyenesen haladó járművek ütközése",egyéb,"rendőr, vagy lámpa jelzésre nem állt  meg",47.4865083333333,19.1076666666667,0,0,1,2,POINT (654538.2575529236 238064.5896255088),jármű-jármű,Kőbányai út  Taraliget lakópark
2012-05-31,2012,Budapest VIII. kerület,könnyű sérüléses,Gyalogos elütése útkereszteződésen kívül,gyalogosok hibája,"álló jármű vagy oszlop (fa, egyéb akadály) előtt való áthaladás",47.4841111111111,19.0978583333333,0,0,1,2,POINT (653799.2768802445 237797.56608447392),gyalogos,"['Vajda Péter Ének-zenei Általános és Sportiskola', ' 25-31', ' Vajda Péter utca']"
2012-06-04,2012,Budapest VIII. kerület,könnyű sérüléses,"Keresztirányból érkező, egyenesen haladó járművek ütközése",elsőbbség meg nem adása,a közúti jelzőtáblák utasítása ellenére,47.4935805555556,19.0710472222222,0,0,1,2,POINT (651778.4171099035 238849.40503939544),jármű-jármű, József körút
2012-06-05,2012,Budapest VIII. kerület,súlyos sérüléses,"Azonos irányból érkező járművek ütközése útkereszteződésben, az egyik jármű JOBBRA kanyarodik","irányváltoztatási, haladási, bekanyarodási hiba",forgalmi sáv szabálytalan változtatása,47.4969,19.0699055555556,0,1,0,2,POINT (651692.2927220535 239218.4211599116),jármű-jármű,Blaha Lujza tér  Rákóczi út
2012-06-07,2012,Budapest VIII. kerület,könnyű sérüléses,"Gyalogos elütése nem útkereszteződésben, kijelölt gyalogos-átkelőhelyen",elsőbbség meg nem adása,gyalogosoknak kijelölt gyalogátkelőhelyen,47.4941444444444,19.0603861111111,0,0,1,1,POINT (650975.1012956679 238911.9193801291),gyalogos,"['Astoria', ' Astoria aluljáró']"
2012-06-07,2012,Budapest VIII. kerület,könnyű sérüléses,"Egyéb, azonos irányba haladó kanyarodó járművek  ütközése.","irányváltoztatási, haladási, bekanyarodási hiba",követés távolság be nem tartása,47.4790777777778,19.1011972222222,0,0,1,4,POINT (654051.2811965373 237238.15003199375),gyalogos,"['Allianz székház / K3 irodaház', ' 48-52', ' Könyves Kálmán körút']"
2012-06-09,2012,Budapest VIII. kerület,súlyos sérüléses,"Pályaelhagyás járművel egyenes úton, a menetirány szerinti JOBB oldalon és szilárd tárgynak ütközés az útpályán kívül (fa, oszlop, támfal stb.)",sebesség nem megfelelő alkalmazása,"az útviszonyokhoz (az út vonalvezetéséhez, útburkolat minőségéhez)",47.5017027777778,19.0853944444444,0,1,1,1,POINT (652859.0436159931 239752.80606441668),egy jármű,"['Capitol söröző', ' 2', ' Verseny utca', ' Ligetváros']"
2012-06-10,2012,Budapest VIII. kerület,könnyű sérüléses,"Keresztirányból érkező, egyenesen haladó járművek ütközése",egyéb,"rendőr, vagy lámpa jelzésre nem állt  meg",47.4960055555556,19.0839222222222,0,0,1,2,POINT (652748.4162776861 239119.36388455855),jármű-jármű,Dologház utca  Fiumei út
2012-06-11,2012,Budapest VIII. kerület,könnyű sérüléses,Gyalogos elütése útkereszteződésben kijelölt gyalogos-átkelőhelyen,gyalogosok hibája,tilos jelzésen való áthaladás,47.49718888888889,19.0706583333333,0,0,2,2,POINT (651749.0013072316 239250.55423440936),gyalogos,"['Citychange', ' Blaha Lujza téri aluljáró']"
2012-06-12,2012,Budapest VIII. kerület,könnyű sérüléses,"Utoléréses baleset két vagy több résztvevővel, az egyik megállt","irányváltoztatási, haladási, bekanyarodási hiba",követés távolság be nem tartása,47.4995361111111,19.0832972222222,0,0,1,3,POINT (652701.1508170594 239511.85359625908),jármű-jármű,"['Keleti pályaudvar M', ' Kerepesi út']"
2012-06-15,2012,Budapest VIII. kerület,könnyű sérüléses,"Keresztirányból érkező, egyenesen haladó járművek ütközése",elsőbbség meg nem adása,a közúti jelzőtáblák utasítása ellenére,47.4998027777778,19.0957083333333,0,0,1,2,POINT (653636.195157123 239541.98999102582),jármű-jármű,"['Gumigyár', ' Kerepesi út']"
2012-06-16,2012,Budapest VIII. kerület,könnyű sérüléses,Egyéb közlekedési baleset gyalogossal,gyalogosok hibája,egyéb,47.4884166666667,19.0879972222222,0,0,1,2,POINT (653055.8757640158 238275.8145531561),gyalogos,"['Bókay János Humán Szakközépiskola', ' Diószegi Sámuel utca', ' Orczy Fórum Városközpont']"
2012-06-18,2012,Budapest VIII. kerület,könnyű sérüléses,Utasbalesetek,sebesség nem megfelelő alkalmazása,a jármű és a rakomány sajátosságaihoz,47.49718888888889,19.0706583333333,0,0,1,1,POINT (651749.0013072316 239250.55423440936),utasbaleset,Citychange  Blaha Lujza téri aluljáró
2012-06-18,2012,Budapest VIII. kerület,súlyos sérüléses,"Keresztirányból érkező, egyenesen haladó járművek ütközése, az egyik előz vagy forgalmi sávot vált",sebesség nem megfelelő alkalmazása,"az útviszonyokhoz (az út vonalvezetéséhez, útburkolat minőségéhez)",47.49718888888889,19.0706583333333,0,1,0,2,POINT (651749.0013072316 239250.55423440936),jármű-jármű,Citychange  Blaha Lujza téri aluljáró
2012-06-19,2012,Budapest VIII. kerület,könnyű sérüléses,"Szembe haladó járművek ütközése útkereszteződésben, az egyik résztvevő BALRA kanyarodik","irányváltoztatási, haladási, bekanyarodási hiba","a balra kanyarodó jármű vezetője nem  győződött meg meg a balra kanyarodás előtt, hogy előzését más jármű megkezdte-e",47.4892527777778,19.086375,0,0,1,2,POINT (652933.58573788 238368.70889307404),jármű-jármű, Karácsony Sándor utca
2012-06-28,2012,Budapest VIII. kerület,könnyű sérüléses,Azonos irányból érkező járművek ütközése az egyik jármű megfordul,"irányváltoztatási, haladási, bekanyarodási hiba",szabálytalan megfordulás,47.4995333333333,19.0809166666667,0,0,1,2,POINT (652521.7981341624 239511.46783487487),jármű-jármű,[' Baross tér']
2012-06-29,2012,Budapest VIII. kerület,könnyű sérüléses,Menetirány szerint a JOBB oldalon várakozó járműnek ütközés,egyéb,"figyelmetlen, gondatlan vezetés",47.4951055555556,19.0755111111111,0,0,1,2,POINT (652114.709196066 239019.05362225327),jármű-jármű,"['Zöldség-gyümölcs', ' Népszínház utca']"
2012-07-01,2012,Budapest VIII. kerület,könnyű sérüléses,"Utoléréses baleset két vagy több résztvevővel, az egyik megállt","irányváltoztatási, haladási, bekanyarodási hiba",követés távolság be nem tartása,47.4934583333333,19.1088472222222,0,0,2,2,POINT (654626.6275136513 238837.32452801007),jármű-jármű,['Százados negyed']
2012-07-03,2012,Budapest VIII. kerület,könnyű sérüléses,"Gyalogos elütése nem útkereszteződésben, kijelölt gyalogos-átkelőhelyen",elsőbbség meg nem adása,gyalogosoknak kijelölt gyalogátkelőhelyen,47.48735,19.0683527777778,0,0,1,1,POINT (651575.5680984133 238156.6672319634),gyalogos,"['Üllői út', ' Mária utca']"
2012-07-04,2012,Budapest VIII. kerület,könnyű sérüléses,"Azonos irányból érkező járművek ütközése útkereszteződésben, az egyik jármű JOBBRA kanyarodik","irányváltoztatási, haladási, bekanyarodási hiba",egyenes irányban haladó jármű forgalmának akadályozása,47.4969,19.0699055555556,0,0,1,2,POINT (651692.2927220535 239218.4211599116),jármű-jármű,Blaha Lujza tér  Rákóczi út
2012-07-07,2012,Budapest VIII. kerület,könnyű sérüléses,"Keresztirányból érkező, egyenesen haladó járművek ütközése",elsőbbség meg nem adása,a közúti jelzőtáblák utasítása ellenére,47.4893888888889,19.0781444444444,0,0,2,2,POINT (652313.3634972712 238383.57377972204),jármű-jármű, Baross utca
2012-07-15,2012,Budapest VIII. kerület,könnyű sérüléses,Utasbalesetek,egyéb,mozgó járműrűl le- vagy felugrás,45.0371444444444,10.7874805555556,0,0,1,1,POINT (0.23896893626079 144.0263402867131),utasbaleset,
2012-07-20,2012,Budapest VIII. kerület,könnyű sérüléses,Egyéb egyjárműves (magányos) közlekedési baleset,sebesség nem megfelelő alkalmazása,"az útviszonyokhoz (az út vonalvezetéséhez, útburkolat minőségéhez)",47.4995333333333,19.0809166666667,0,0,1,1,POINT (652521.7981341624 239511.46783487487),egy jármű, Baross tér
2012-07-21,2012,Budapest VIII. kerület,könnyű sérüléses,"Gyalogos elütése az úttesten, tömegközlekedési jármű megállójában","irányváltoztatási, haladási, bekanyarodási hiba",szabálytalan hátramenet,47.4996305555556,19.0829194444444,0,0,1,1,POINT (652672.6841473966 239522.34092304917),gyalogos,Kerepesi út
2012-07-23,2012,Budapest VIII. kerület,könnyű sérüléses,"Keresztirányból érkező, egyenesen haladó járművek ütközése",elsőbbség meg nem adása,a közúti jelzőtáblák utasítása ellenére,47.49643333333331,19.0831583333333,0,0,1,2,POINT (652690.8394478715 239166.89646983403),jármű-jármű,['Dologház utca']
2012-07-27,2012,Budapest VIII. kerület,könnyű sérüléses,Azonos irányból érkező járművek ütközése az egyik jármű megfordul,"irányváltoztatási, haladási, bekanyarodási hiba",szabálytalan megfordulás,47.4845833333333,19.0871833333333,0,0,1,4,POINT (652994.7544086493 237849.6130481842),jármű-jármű,"[' Korányi Sándor utca', ' Orczy Fórum Városközpont']"
2012-07-28,2012,Budapest VIII. kerület,könnyű sérüléses,"Keresztirányból érkező, egyenesen haladó járművek ütközése",egyéb,"rendőr, vagy lámpa jelzésre nem állt  meg",47.4969,19.0699055555556,0,0,1,2,POINT (651692.2927220535 239218.4211599116),jármű-jármű,Blaha Lujza tér  Rákóczi út
2012-07-29,2012,Budapest VIII. kerület,könnyű sérüléses,Gyalogos elütése útkereszteződésben kijelölt gyalogos-átkelőhelyen,gyalogosok hibája,tilos jelzésen való áthaladás,47.4989333333333,19.0852416666667,0,0,1,2,POINT (652847.6781295057 239444.9064258174),gyalogos,[' Lóvásár utca']
2012-07-30,2012,Budapest VIII. kerület,könnyű sérüléses,"Azonos irányból érkező járművek ütközése útkereszteződésben, mindkét jármű JOBBRA kanyarodik",elsőbbség meg nem adása,a forgalomba való bekapcsolódáskor,47.4969,19.0699055555556,0,0,1,2,POINT (651692.2927220535 239218.4211599116),jármű-jármű,Blaha Lujza tér  Rákóczi út
2012-07-30,2012,Budapest VIII. kerület,könnyű sérüléses,"Gyalogos elütése nem útkereszteződésben, kijelölt gyalogos-átkelőhelyen",gyalogosok hibája,tilos jelzésen való áthaladás,47.4905388888889,19.0708861111111,0,0,1,2,POINT (651766.3740332505 238511.24366989397),gyalogos,['Józsefváros']
2012-08-01,2012,Budapest VIII. kerület,könnyű sérüléses,"Utoléréses baleset két vagy több résztvevővel, az egyik megállt","irányváltoztatási, haladási, bekanyarodási hiba",követés távolság be nem tartása,47.4820444444444,19.1037777777778,0,0,1,2,POINT (654245.5442827828 237568.10281090747),jármű-jármű,"['Vajda Péter utca', ' Tisztviselőtelep']"
2012-08-02,2012,Budapest VIII. kerület,könnyű sérüléses,"Gyalogos elütése nem útkereszteződésben, kijelölt gyalogos-átkelőhelyen",gyalogosok hibája,tilos jelzésen való áthaladás,47.4927416666667,19.0710083333333,0,0,1,2,POINT (651775.5136283527 238756.1405311049),gyalogos,Rákóczi tér M  József körút
2012-08-03,2012,Budapest VIII. kerület,könnyű sérüléses,"Gyalogos elütése nem útkereszteződésben, kijelölt gyalogos-átkelőhelyen",gyalogosok hibája,tilos jelzésen való áthaladás,47.4861833333333,19.0702083333333,0,0,1,2,POINT (651715.4350909877 238027.0000658608),gyalogos,"['CBA', ' 84', ' József körút']"
2012-08-03,2012,Budapest VIII. kerület,könnyű sérüléses,"Gyalogos elütése nem útkereszteződésben kijelölt gyalogos-átkelőhelyen, egy másik (álló) jármű mellett elhaladó járművel",elsőbbség meg nem adása,gyalogosoknak kijelölt gyalogátkelőhelyen,47.4916944444444,19.0805527777778,0,0,1,1,POINT (652494.7390080915 238639.96570213634),gyalogos,[' Mátyás tér']
2012-08-06,2012,Budapest VIII. kerület,könnyű sérüléses,Gyalogos elütése útkereszteződésen kívül,egyéb,"figyelmetlen, gondatlan vezetés",47.4927416666667,19.0710083333333,0,0,1,1,POINT (651775.5136283527 238756.1405311049),gyalogos,Rákóczi tér M  József körút
2012-08-07,2012,Budapest VIII. kerület,súlyos sérüléses,"Keresztirányból érkező, egyenesen haladó járművek ütközése",elsőbbség meg nem adása,a jobbról érkező járműnek,47.4948416666667,19.0729722222222,0,1,2,2,POINT (651923.4205838683 238989.6528850297),jármű-jármű,"[' Víg utca', ' Józsefváros']"
2012-08-07,2012,Budapest VIII. kerület,könnyű sérüléses,ütközés körforgalomban haladó járművel kihaladóskor,elsőbbség meg nem adása,a közúti jelzőtáblák utasítása ellenére,47.4956666666667,19.084775,0,0,1,2,POINT (652812.6869149518 239081.71721495222),jármű-jármű,"['Urunk mennybemenetele kápolna', ' Vörösmarty Mihály út']"
2012-08-11,2012,Budapest VIII. kerület,könnyű sérüléses,Egyéb közlekedési baleset gyalogossal,gyalogosok hibája,tiltott helyen való áthaladás,47.4882222222222,19.1005722222222,0,0,1,3,POINT (654003.4987368722 238254.75134594573),gyalogos,239-es épület  27  Kőbányai út
2012-08-13,2012,Budapest VIII. kerület,könnyű sérüléses,"Keresztirányból érkező járművek ütközése, az egyik jármű BALRA  kanyarodik.",elsőbbség meg nem adása,a közúti jelzőtáblák utasítása ellenére,47.4893888888889,19.0781444444444,0,0,1,2,POINT (652313.3634972712 238383.57377972204),jármű-jármű, Baross utca
2012-08-13,2012,Budapest VIII. kerület,könnyű sérüléses,állatok elütése,egyéb,háziállatok az úttesten,47.4766361111111,19.0992583333333,0,0,1,2,POINT (653905.3234939378 236966.60180787844),gyalogos,"['Ügyészség', ' Könyves Kálmán körút']"
2012-08-17,2012,Budapest VIII. kerület,könnyű sérüléses,Gyalogos elütése útkereszteződésben kijelölt gyalogos-átkelőhelyen,elsőbbség meg nem adása,a gyalogosnak kanyarodáskor,47.4892527777778,19.086375,0,0,1,1,POINT (652933.58573788 238368.70889307404),gyalogos, Karácsony Sándor utca
2012-08-21,2012,Budapest VIII. kerület,könnyű sérüléses,Egyéb egyjárműves (magányos) közlekedési baleset,sebesség nem megfelelő alkalmazása,"az útviszonyokhoz (az út vonalvezetéséhez, útburkolat minőségéhez)",47.4866888888889,19.0703222222222,0,0,1,1,POINT (651724.0020905802 238083.20759769666),egy jármű,"['OTP Bank', ' 80', ' József körút']"
2012-08-26,2012,Budapest VIII. kerület,könnyű sérüléses,Egyéb egyjárműves (magányos) közlekedési baleset,sebesség nem megfelelő alkalmazása,"az útviszonyokhoz (az út vonalvezetéséhez, útburkolat minőségéhez)",47.4996305555556,19.0829194444444,0,0,1,1,POINT (652672.6841473966 239522.34092304917),egy jármű,Kerepesi út
2012-08-27,2012,Budapest VIII. kerület,könnyű sérüléses,"Egyéb, azonos irányba haladó kanyarodó járművek  ütközése.","irányváltoztatási, haladási, bekanyarodási hiba",forgalmi sáv szabálytalan változtatása,47.4995361111111,19.0818,0,0,1,2,POINT (652588.3489912534 239511.80456783643),gyalogos,"['Intercity Hotel', ' 7-8', ' Baross tér']"
2012-08-29,2012,Budapest VIII. kerület,súlyos sérüléses,Egyéb közlekedési baleset gyalogossal,gyalogosok hibája,"álló jármű vagy oszlop (fa, egyéb akadály) előtt való áthaladás",47.4826361111111,19.0837722222222,0,1,0,2,POINT (652737.7837167042 237633.00939042127),gyalogos,"['I. sz. Belgyógyászati Klinika', ' 2/a', ' Korányi Sándor utca']"
2012-08-29,2012,Budapest VIII. kerület,könnyű sérüléses,"Utoléréses baleset két vagy több résztvevővel, az egyik megállt","irányváltoztatási, haladási, bekanyarodási hiba",követés távolság be nem tartása,47.4969194444444,19.0820888888889,0,0,1,3,POINT (652610.2388233639 239220.90493622827),jármű-jármű,"['Országos Traumatológiai Intézet', ' 17', ' Fiumei út']"
2012-09-03,2012,Budapest VIII. kerület,súlyos sérüléses,Gyalogos elütése útkereszteződésben nem kijelölt gyalogos-átkelőhelyen,elsőbbség meg nem adása,a gyalogosnak kanyarodáskor,47.4946027777778,19.0646777777778,0,1,0,1,POINT (651298.4610701749 238962.93244612616),gyalogos, Szentkirályi utca
2012-09-06,2012,Budapest VIII. kerület,súlyos sérüléses,Gyalogos elütése útkereszteződésben kijelölt gyalogos-átkelőhelyen,gyalogosok hibája,tilos jelzésen való áthaladás,47.4895527777778,19.0764888888889,0,1,0,2,POINT (652188.6023150267 238401.74827300373),gyalogos,[' Baross utca']
2012-09-07,2012,Budapest VIII. kerület,könnyű sérüléses,"Egyéb, azonos irányba haladó kanyarodó járművek  ütközése.",egyéb,megfelelő oldaltávolság hiánya,47.4894444444444,19.0707277777778,0,0,1,2,POINT (651754.4775388279 238389.56526995104),gyalogos,['Baross utca']
2012-09-08,2012,Budapest VIII. kerület,könnyű sérüléses,"Utoléréses baleset két vagy több résztvevővel, az egyik megállt","irányváltoztatási, haladási, bekanyarodási hiba",követés távolság be nem tartása,47.4883055555556,19.0988027777778,0,0,2,2,POINT (653870.1530742653 238263.92873928128),jármű-jármű,"['25-ös kisáruház', ' 25', ' Kőbányai út']"
2012-09-08,2012,Budapest VIII. kerület,könnyű sérüléses,"Egyéb, azonos irányba haladó kanyarodó járművek  ütközése.",sebesség nem megfelelő alkalmazása,"az útviszonyokhoz (az út vonalvezetéséhez, útburkolat minőségéhez)",47.4879583333333,19.0703444444444,0,0,1,4,POINT (651725.6374311505 238224.33861356962),gyalogos,[' József körút']
2012-09-11,2012,Budapest VIII. kerület,könnyű sérüléses,"Keresztirányból érkező, egyenesen haladó járművek ütközése",elsőbbség meg nem adása,a jobbról érkező járműnek,47.4939444444444,19.0732527777778,0,0,1,2,POINT (651944.5912119318 238889.91059867307),jármű-jármű,"[' Víg utca', ' Józsefváros']"
2012-09-11,2012,Budapest VIII. kerület,könnyű sérüléses,"Egyéb, azonos irányba haladó kanyarodó járművek  ütközése.","irányváltoztatási, haladási, bekanyarodási hiba",forgalmi sáv szabálytalan változtatása,47.4969,19.0699055555556,0,0,1,2,POINT (651692.2927220535 239218.4211599116),gyalogos,Blaha Lujza tér  Rákóczi út
2012-09-13,2012,Budapest VIII. kerület,súlyos sérüléses,"Azonos irányból érkező járművek ütközése útkereszteződésben, mindkét jármű JOBBRA kanyarodik","irányváltoztatási, haladási, bekanyarodási hiba",villamosnak elsőbbség meg nem adása,47.49275,19.0709972222222,0,1,0,2,POINT (651774.6761358678 238757.06675103708),jármű-jármű,"['Rákóczi tér M', ' József körút']"
2012-09-13,2012,Budapest VIII. kerület,könnyű sérüléses,"Utoléréses baleset két vagy több résztvevővel, az egyik megállt","irányváltoztatási, haladási, bekanyarodási hiba",követés távolság be nem tartása,47.4949583333333,19.0844888888889,0,0,1,5,POINT (652791.1657011631 239002.95810559246),jármű-jármű,"['23-21', ' Fiumei út']"
2012-09-14,2012,Budapest VIII. kerület,könnyű sérüléses,"Utoléréses baleset két vagy több résztvevővel, az egyik megállt","irányváltoztatási, haladási, bekanyarodási hiba",követés távolság be nem tartása,47.49953888888889,19.0829416666667,0,0,1,2,POINT (652674.36286374 239512.15057812067),jármű-jármű,Keleti pályaudvar  Kerepesi út
2012-09-24,2012,Budapest VIII. kerület,könnyű sérüléses,Gyalogos elütése útkereszteződésen kívül,gyalogosok hibája,"vigyázatlan, hirtelen lelépés az úttestre",47.4947777777778,19.0624416666667,0,0,1,2,POINT (651129.9716547341 238982.35582427893),gyalogos,[' Rákóczi út']
2012-09-26,2012,Budapest VIII. kerület,könnyű sérüléses,"Gyalogos elütése nem útkereszteződésben kijelölt gyalogos-átkelőhelyen, egy másik (álló) jármű mellett elhaladó járművel",elsőbbség meg nem adása,gyalogosoknak kijelölt gyalogátkelőhelyen,47.4865083333333,19.1076666666667,0,0,2,1,POINT (654538.2575529236 238064.5896255088),gyalogos,Kőbányai út  Taraliget lakópark
2012-09-27,2012,Budapest VIII. kerület,könnyű sérüléses,"Gyalogos elütése nem útkereszteződésben, kijelölt gyalogos-átkelőhelyen",egyéb,"rendőr, vagy lámpa jelzésre nem állt  meg",47.482,19.0809416666667,0,0,1,1,POINT (652524.4888133624 237562.1976106185),gyalogos,[' Üllői út']
2012-09-27,2012,Budapest VIII. kerület,könnyű sérüléses,Menetirány szerint  a BAL oldalon várakozó járműnek ütközés,egyéb,"figyelmetlen, gondatlan vezetés",47.4759027777778,19.0980527777778,0,0,1,2,POINT (653814.5083987749 236885.01548051066),jármű-jármű,['Üllői út']
2012-09-27,2012,Budapest VIII. kerület,könnyű sérüléses,Pályaelhagyás járművel útkereszteződésben a menetirány szerinti BAL oldalon,sebesség nem megfelelő alkalmazása,a forgalmi viszonyokhoz,47.4995555555556,19.0951388888889,0,0,1,2,POINT (653593.3093863698 239514.47924203062),egy jármű,"['IMO', ' Kerepesi út']"
2012-09-28,2012,Budapest VIII. kerület,könnyű sérüléses,"Egyéb keresztirányból érkező, kanyarodó járműütközések",elsőbbség meg nem adása,a forgalomba való bekapcsolódáskor,47.4993222222222,19.0791305555556,0,0,1,3,POINT (652387.24037239 239487.94332650176),jármű-jármű,"[' Baross tér', ' Ligetváros']"
2012-09-28,2012,Budapest VIII. kerület,könnyű sérüléses,"Keresztirányból érkező szembe haladó járművek ütközése, az egyik jármű JOBBRA kanyarodik",elsőbbség meg nem adása,a közúti jelzőtáblák utasítása ellenére,47.4793611111111,19.0975527777778,0,0,1,2,POINT (653776.5803031153 237269.47102866214),jármű-jármű,"['Mándy Iván Szakképző Iskola és Szakiskola', ' 3', ' Elnök utca']"
2012-09-29,2012,Budapest VIII. kerület,könnyű sérüléses,Gyalogos elütése útkereszteződésben nem kijelölt gyalogos-átkelőhelyen,elsőbbség meg nem adása,a gyalogosnak kanyarodáskor,47.4928333333333,19.0699777777778,0,0,1,1,POINT (651697.858058317 238766.3098194566),gyalogos,[' Kölcsey utca']
2012-10-01,2012,Budapest VIII. kerület,könnyű sérüléses,"Keresztirányból érkező, egyenesen haladó járművek ütközése",elsőbbség meg nem adása,a közúti jelzőtáblák utasítása ellenére,47.4894166666667,19.091275,0,0,1,2,POINT (653302.8170567172 238387.11939697547),jármű-jármű,['Fiumei út']
2012-10-02,2012,Budapest VIII. kerület,könnyű sérüléses,"Keresztirányból érkező, egyenesen haladó járművek ütközése",elsőbbség meg nem adása,a jobbról érkező járműnek,47.4935805555556,19.0710472222222,0,0,1,2,POINT (651778.4171099035 238849.40503939544),jármű-jármű, József körút
2012-10-02,2012,Budapest VIII. kerület,könnyű sérüléses,"Keresztirányból érkező, egyenesen haladó járművek ütközése",egyéb,"rendőr, vagy lámpa jelzésre nem állt  meg",47.4755861111111,19.0986305555556,0,0,1,2,POINT (653858.0805668101 236849.8378957737),jármű-jármű,Nemzeti Dohánybolt  Népliget aluljáró  Szent László Kórház
2012-10-03,2012,Budapest VIII. kerület,könnyű sérüléses,"Gyalogos elütése járművel az útpályán kívül, a menetirány szerinti BAL oldalon (járdán, megállóban, stb.)",gyalogosok hibája,tilos jelzésen való áthaladás,47.4893888888889,19.0781444444444,0,0,1,2,POINT (652313.3634972712 238383.57377972204),gyalogos, Baross utca
2012-10-04,2012,Budapest VIII. kerület,súlyos sérüléses,ütközés JOBBRÓL BALRA történő sávváltás közben,"irányváltoztatási, haladási, bekanyarodási hiba",forgalmi sáv szabálytalan változtatása,47.4995222222222,19.084975,0,1,0,2,POINT (652827.5565494112 239510.36700157638),jármű-jármű,"['Nemzeti Dohánybolt', ' Kerepesi út']"
2012-10-08,2012,Budapest VIII. kerület,könnyű sérüléses,Gyalogos elütése útkereszteződésben kijelölt gyalogos-átkelőhelyen,elsőbbség meg nem adása,gyalogosoknak kijelölt gyalogátkelőhelyen,47.4890666666667,19.066575,0,0,1,1,POINT (651441.5542384023 238347.48541187696),gyalogos,[' Baross utca']
2012-10-10,2012,Budapest VIII. kerület,könnyű sérüléses,"Keresztirányból érkező járművek ütközése, az egyik jármű BALRA  kanyarodik.",egyéb,"rendőr, vagy lámpa jelzésre nem állt  meg",47.4923166666667,19.0727555555556,0,0,1,2,POINT (651907.182148113 238708.93032109097),jármű-jármű,"[' Rákóczi tér', ' Józsefváros']"
2012-10-10,2012,Budapest VIII. kerület,könnyű sérüléses,"Keresztirányból érkező, egyenesen haladó járművek ütközése",elsőbbség meg nem adása,a jobbról érkező járműnek,47.4948055555556,19.0740416666667,0,0,2,2,POINT (652004.0017695504 238985.6639235957),jármű-jármű,"['Józsefvárosi Egységes Gyógypedagógiai Módszertani Intézmény és Általános Iskola', ' 11-15', ' Tolnai Lajos utca', ' Józsefváros']"
2012-10-12,2012,Budapest VIII. kerület,könnyű sérüléses,"Egyéb keresztirányból érkező, kanyarodó járműütközések","irányváltoztatási, haladási, bekanyarodási hiba",szabálytalan hátramenet,47.4892527777778,19.086375,0,0,1,2,POINT (652933.58573788 238368.70889307404),jármű-jármű, Karácsony Sándor utca
2012-10-14,2012,Budapest VIII. kerület,könnyű sérüléses,"A menetirány szerint JOBB oldalon álló, várakozó jármű, egyéb akadály előtt (mögött) áthaladó gyalogos elütése",gyalogosok hibája,"álló jármű vagy oszlop (fa, egyéb akadály) előtt való áthaladás",47.4946722222222,19.0774666666667,0,0,1,2,POINT (652262.0723289788 238970.9302849691),gyalogos,"['II. János Pál pápa tér M', ' Népszínház utca']"
2012-10-14,2012,Budapest VIII. kerület,súlyos sérüléses,"Keresztirányból érkező, egyenesen haladó járművek ütközése",elsőbbség meg nem adása,a forgalomba való bekapcsolódáskor,47.4883055555556,19.0999972222222,0,1,0,2,POINT (653960.1624696347 238263.98726815602),jármű-jármű,"['27-es kisáruház', ' 25', ' Kőbányai út']"
2012-10-18,2012,Budapest VIII. kerület,könnyű sérüléses,"Azonos irányból érkező járművek ütközése útkereszteződésben, az egyik jármű JOBBRA kanyarodik","irányváltoztatási, haladási, bekanyarodási hiba","jobbra kis ívű, balra nagy ívű kanyarodási szabály megszegése",47.4884166666667,19.0703305555556,0,0,1,2,POINT (651724.5766214923 238275.29356580006),jármű-jármű,[' Csepreghy utca']
2012-10-23,2012,Budapest VIII. kerület,súlyos sérüléses,Egyéb közlekedési baleset gyalogossal,egyéb,"figyelmetlen, gondatlan vezetés",47.4918611111111,19.0613027777778,0,1,0,1,POINT (651044.2120032029 238658.08011156943),jármű-jármű,"['Múzeum körút', ' Pest']"
2012-10-27,2012,Budapest VIII. kerület,súlyos sérüléses,"Azonos irányból érkező járművek ütközése útkereszteződésben, az egyik jármű BALRA kanyarodik","irányváltoztatási, haladási, bekanyarodási hiba",forgalmi sáv szabálytalan változtatása,47.4918833333333,19.0614083333333,0,1,1,3,POINT (651052.1653840482 238660.55197177068),jármű-jármű,"['Múzeum', ' 12', ' Múzeum körút']"
2012-10-27,2012,Budapest VIII. kerület,könnyű sérüléses,Utasbalesetek,elsőbbség meg nem adása,a forgalomba való bekapcsolódáskor,47.4913222222222,19.0710277777778,0,0,1,2,POINT (651777.0241032558 238598.33393679996),utasbaleset,"[' József körút', ' Józsefváros']"
2012-11-02,2012,Budapest VIII. kerület,könnyű sérüléses,"Egyéb, azonos irányba haladó kanyarodó járművek  ütközése.",sebesség nem megfelelő alkalmazása,a forgalmi viszonyokhoz,47.49385833333329,19.0709166666667,0,0,1,2,POINT (651768.5710250126 238880.28423320016),gyalogos,[' József körút']
2012-11-06,2012,Budapest VIII. kerület,könnyű sérüléses,Gyalogos elütése útkereszteződésen kívül,gyalogosok hibája,egyéb,47.4984972222222,19.0819111111111,0,0,1,2,POINT (652596.7694429095 239396.30923428613),gyalogos,[' Mosonyi utca']
2012-11-06,2012,Budapest VIII. kerület,könnyű sérüléses,Gyalogos elütése útkereszteződésben kijelölt gyalogos-átkelőhelyen,elsőbbség meg nem adása,a gyalogosnak kanyarodáskor,47.4916777777778,19.0689722222222,0,0,1,1,POINT (651622.122691999 238637.82043620784),gyalogos,"['12-14', ' Mária utca']"
2012-11-07,2012,Budapest VIII. kerület,könnyű sérüléses,Gyalogos elütése útkereszteződésben kijelölt gyalogos-átkelőhelyen,elsőbbség meg nem adása,gyalogosoknak kijelölt gyalogátkelőhelyen,47.49355,19.0824111111111,0,0,1,1,POINT (652634.6786402407 238846.31643022475),gyalogos,['Népszínház utca']
2012-11-11,2012,Budapest VIII. kerület,könnyű sérüléses,"Keresztirányból érkező, egyenesen haladó járművek ütközése",egyéb,"rendőr, vagy lámpa jelzésre nem állt  meg",47.4927416666667,19.0710083333333,0,0,1,2,POINT (651775.5136283527 238756.1405311049),jármű-jármű,Rákóczi tér M  József körút
2012-11-11,2012,Budapest VIII. kerület,könnyű sérüléses,Gyalogos elütése útkereszteződésben nem kijelölt gyalogos-átkelőhelyen,gyalogosok hibája,tiltott helyen való áthaladás,47.48825,19.1008027777778,0,0,1,2,POINT (654020.8706070267 238257.8511256454),gyalogos,"['239-es épület', ' 27', ' Kőbányai út']"
2012-11-12,2012,Budapest VIII. kerület,könnyű sérüléses,Azonos irányból érkező járművek ütközése a belső sávban haladó jármű JOBBRA kanyarodik,"irányváltoztatási, haladási, bekanyarodási hiba",forgalmi sáv szabálytalan változtatása,47.4759722222222,19.0969972222222,0,0,1,2,POINT (653734.9418055487 236892.6861177122),jármű-jármű,"['Üllői út', ' Szent László Kórház']"
2012-11-13,2012,Budapest VIII. kerület,könnyű sérüléses,ütközés BALRÓL JOBBRA történő sávváltás közben,"irányváltoztatási, haladási, bekanyarodási hiba",forgalmi sáv szabálytalan változtatása,47.494675,19.0850694444444,0,0,1,2,POINT (652834.9236715438 238971.47870523072),jármű-jármű,"['OMV Top Wash', ' Teleki László tér']"
2012-11-13,2012,Budapest VIII. kerület,könnyű sérüléses,"Azonos irányból érkező járművek ütközése útkereszteződésben, az egyik jármű JOBBRA kanyarodik","irányváltoztatási, haladási, bekanyarodási hiba",forgalmi sáv szabálytalan változtatása,47.4888111111111,19.0831666666667,0,0,1,2,POINT (652691.8423430123 238319.4946030078),jármű-jármű,"['Príma', ' 111', ' Baross utca']"
2012-11-16,2012,Budapest VIII. kerület,könnyű sérüléses,"Egyéb, azonos irányba haladó kanyarodó járművek  ütközése.",elsőbbség meg nem adása,a forgalomba való bekapcsolódáskor,47.4888694444444,19.0826305555556,0,0,1,2,POINT (652651.4403324318 238325.96207645634),gyalogos,"['107-109', ' Baross utca']"
2012-11-17,2012,Budapest VIII. kerület,könnyű sérüléses,Gyalogos elütése útkereszteződésben nem kijelölt gyalogos-átkelőhelyen,gyalogosok hibája,zavaró magatartás az úttesten való áthaladás közben,47.4893805555556,19.0869555555556,0,0,1,2,POINT (652977.3267369851 238382.93591971722),gyalogos,[' Kálvária tér']
2012-11-17,2012,Budapest VIII. kerület,súlyos sérüléses,"Egyéb, várakozó járműnek ütközés",sebesség nem megfelelő alkalmazása,"az útviszonyokhoz (az út vonalvezetéséhez, útburkolat minőségéhez)",47.4874444444444,19.0801083333333,0,1,0,2,POINT (652461.439892352 238167.4578572752),gyalogos,[' Szigony utca']
2012-11-20,2012,Budapest VIII. kerület,könnyű sérüléses,Keresztirányból érkező járművek ütközése kettőnél több résztvevővel,elsőbbség meg nem adása,a jobbról érkező járműnek,47.4868027777778,19.0830916666667,0,0,1,2,POINT (652686.2892408316 238096.2155288859),jármű-jármű, Práter utca
2012-11-20,2012,Budapest VIII. kerület,könnyű sérüléses,Menetirány szerint a JOBB oldalon várakozó járműnek ütközés,sebesség nem megfelelő alkalmazása,"az útviszonyokhoz (az út vonalvezetéséhez, útburkolat minőségéhez)",47.4934472222222,19.0780638888889,0,0,1,1,POINT (652307.1230037762 238834.75740049346),jármű-jármű,"[' Nagy Fuvaros utca', ' Józsefváros']"
2012-11-23,2012,Budapest VIII. kerület,könnyű sérüléses,"Keresztirányból érkező járművek ütközése, az egyik jármű BALRA  kanyarodik.",egyéb,"rendőr, vagy lámpa jelzésre nem állt  meg",47.4904166666667,19.1087472222222,0,0,1,2,POINT (654619.3529068958 238499.1609299654),jármű-jármű,['Hungária körút']
2012-11-23,2012,Budapest VIII. kerület,könnyű sérüléses,Menetirány szerint  a BAL oldalon várakozó járműnek ütközés,sebesség nem megfelelő alkalmazása,"az útviszonyokhoz (az út vonalvezetéséhez, útburkolat minőségéhez)",47.4912722222222,19.1032638888889,0,0,1,1,POINT (654206.0969235966 238593.97383677322),jármű-jármű,"['14-15', ' Asztalos Sándor út']"
2012-11-26,2012,Budapest VIII. kerület,könnyű sérüléses,"Azonos irányból érkező járművek ütközése útkereszteződésben, az egyik jármű JOBBRA kanyarodik","irányváltoztatási, haladási, bekanyarodási hiba",egyenes irányban haladó jármű forgalmának akadályozása,47.4891444444444,19.0800861111111,0,0,2,2,POINT (652459.6890795319 238356.45481015544),jármű-jármű,['Nemzeti Dohánybolt']
2012-12-02,2012,Budapest VIII. kerület,súlyos sérüléses,Gyalogos elütése útkereszteződésben nem kijelölt gyalogos-átkelőhelyen,elsőbbség meg nem adása,a gyalogosnak kanyarodáskor,47.4946722222222,19.0774666666667,0,1,0,1,POINT (652262.0723289788 238970.9302849691),gyalogos,II. János Pál pápa tér M  Népszínház utca
2012-12-03,2012,Budapest VIII. kerület,súlyos sérüléses,"A menetirány szerint JOBB oldalon álló, várakozó jármű, egyéb akadály előtt (mögött) áthaladó gyalogos elütése",gyalogosok hibája,"vigyázatlan, hirtelen lelépés az úttestre",47.4918611111111,19.0613027777778,0,1,0,2,POINT (651044.2120032029 238658.08011156943),gyalogos,Múzeum körút  Pest
2012-12-04,2012,Budapest VIII. kerület,könnyű sérüléses,"Egyéb, azonos irányba haladó kanyarodó járművek  ütközése.",elsőbbség meg nem adása,egyéb,47.4800083333333,19.0865722222222,0,0,1,2,POINT (652948.9471061957 237340.96537936313),gyalogos,Barkácsbolt  kulcsmásolás  Üllői út
2012-12-15,2012,Budapest VIII. kerület,könnyű sérüléses,"Keresztirányból érkező, egyenesen haladó járművek ütközése",elsőbbség meg nem adása,a jobbról érkező járműnek,47.4935805555556,19.0710472222222,0,0,1,2,POINT (651778.4171099035 238849.40503939544),jármű-jármű, József körút
2012-12-16,2012,Budapest VIII. kerület,könnyű sérüléses,"Utoléréses baleset két vagy több résztvevővel, az egyik megállt","irányváltoztatási, haladási, bekanyarodási hiba",követés távolság be nem tartása,47.4927416666667,19.0710083333333,0,0,1,2,POINT (651775.5136283527 238756.1405311049),jármű-jármű,Rákóczi tér M  József körút
2012-12-18,2012,Budapest VIII. kerület,könnyű sérüléses,"Keresztirányból érkező, egyenesen haladó járművek ütközése",egyéb,"rendőr, vagy lámpa jelzésre nem állt  meg",47.4800083333333,19.0865722222222,0,0,1,2,POINT (652948.9471061957 237340.96537936313),jármű-jármű,Barkácsbolt  kulcsmásolás  Üllői út
2012-12-19,2012,Budapest VIII. kerület,könnyű sérüléses,"Gyalogos elütése az úttesten, tömegközlekedési jármű megállójában",gyalogosok hibája,tilos jelzésen való áthaladás,47.4927416666667,19.0710083333333,0,0,1,3,POINT (651775.5136283527 238756.1405311049),gyalogos,Rákóczi tér M  József körút
2012-12-19,2012,Budapest VIII. kerület,könnyű sérüléses,Gyalogos elütése útkereszteződésen kívül,gyalogosok hibája,tiltott helyen való áthaladás,47.4892527777778,19.086375,0,0,1,2,POINT (652933.58573788 238368.70889307404),gyalogos, Karácsony Sándor utca
2012-12-21,2012,Budapest VIII. kerület,könnyű sérüléses,"Gyalogos elütése az úttesten, tömegközlekedési jármű megállójában",gyalogosok hibája,egyéb,47.4926277777778,19.0829611111111,0,0,1,2,POINT (652676.1658332025 238743.8062543338),gyalogos,"['Gyógyhír Patika', ' 5', ' Teleki László tér']"
2012-12-23,2012,Budapest VIII. kerület,könnyű sérüléses,Egyéb közlekedési baleset gyalogossal,sebesség nem megfelelő alkalmazása,"az útviszonyokhoz (az út vonalvezetéséhez, útburkolat minőségéhez)",47.4878444444444,19.0763944444444,0,0,1,1,POINT (652181.5530541653 238211.82162363426),jármű-jármű, Nap utca
2012-12-27,2012,Budapest VIII. kerület,könnyű sérüléses,Utasbalesetek,sebesség nem megfelelő alkalmazása,egyéb,47.4962555555556,19.0686361111111,0,0,2,1,POINT (651596.6654629785 239146.74950705565),utasbaleset,"['Corvin Áruház', ' 1-2', ' Blaha Lujza tér']"
2012-12-29,2012,Budapest VIII. kerület,könnyű sérüléses,"Keresztirányból érkező, egyenesen haladó járművek ütközése",elsőbbség meg nem adása,a jobbról érkező járműnek,47.4868027777778,19.0830916666667,0,0,1,2,POINT (652686.2892408316 238096.2155288859),jármű-jármű, Práter utca
2013-01-03,2013,Budapest VIII. kerület,súlyos sérüléses,"Pályaelhagyás járművel egyenes úton, menetirány szerinti JOBB oldalon",egyéb,"figyelmetlen, gondatlan vezetés",47.49163888888891,19.0888888888889,0,1,0,1,POINT (653122.8839255715 238634.0797792121),egy jármű,['Fiumei út']
2013-01-08,2013,Budapest VIII. kerület,könnyű sérüléses,"Azonos irányból érkező járművek ütközése útkereszteződésben, az egyik jármű JOBBRA kanyarodik","irányváltoztatási, haladási, bekanyarodási hiba",forgalmi sáv szabálytalan változtatása,47.4923166666667,19.0727555555556,0,0,1,2,POINT (651907.182148113 238708.93032109097),jármű-jármű, Rákóczi tér  Józsefváros
2013-01-19,2013,Budapest VIII. kerület,súlyos sérüléses,ütközés BALRÓL JOBBRA történő sávváltás közben,sebesség nem megfelelő alkalmazása,"az útviszonyokhoz (az út vonalvezetéséhez, útburkolat minőségéhez)",47.4800083333333,19.0865722222222,0,1,0,3,POINT (652948.9471061957 237340.96537936313),jármű-jármű,Barkácsbolt  kulcsmásolás  Üllői út
2013-01-19,2013,Budapest VIII. kerület,könnyű sérüléses,"Utoléréses baleset két vagy több résztvevővel, az egyik megállt","irányváltoztatási, haladási, bekanyarodási hiba",követés távolság be nem tartása,47.4993944444444,19.0992111111111,0,0,1,3,POINT (653900.1250704046 239496.75841359317),jármű-jármű,[' Kerepesi út']
2013-01-21,2013,Budapest VIII. kerület,könnyű sérüléses,"Utoléréses baleset két vagy több résztvevővel, az egyik megállt","irányváltoztatási, haladási, bekanyarodási hiba",követés távolság be nem tartása,47.4897694444444,19.1087305555556,0,0,1,2,POINT (654618.1523910619 238427.20496334793),jármű-jármű,Hidegkuti Nándor Stadion  Hungária körút
2013-01-22,2013,Budapest VIII. kerület,könnyű sérüléses,Gyalogos elütése útkereszteződésen kívül,gyalogosok hibája,"álló jármű vagy oszlop (fa, egyéb akadály) előtt való áthaladás",47.4872222222222,19.0889055555556,0,0,1,2,POINT (653124.3931496113 238143.0570470745),gyalogos,"['17/A', ' Kőris utca', ' Orczy Fórum Városközpont']"
2013-01-28,2013,Budapest VIII. kerület,könnyű sérüléses,"Gyalogos elütése útkereszteződésben kijelölt gyalogos-átkelőhelyenn, egy másik (álló) jármű mellett elhaladó járművel",elsőbbség meg nem adása,gyalogosoknak kijelölt gyalogátkelőhelyen,47.4893805555556,19.0869555555556,0,0,1,1,POINT (652977.3267369851 238382.93591971722),gyalogos, Kálvária tér
2013-01-29,2013,Budapest VIII. kerület,súlyos sérüléses,Gyalogos elütése útkereszteződésben kijelölt gyalogos-átkelőhelyen,elsőbbség meg nem adása,gyalogosoknak kijelölt gyalogátkelőhelyen,47.4778138888889,19.1002,0,1,0,1,POINT (653976.2135360279 237097.58737173738),gyalogos,[' Könyves Kálmán körút']
2013-01-29,2013,Budapest VIII. kerület,könnyű sérüléses,"Keresztirányból érkező járművek ütközése, az egyik jármű BALRA  kanyarodik.",elsőbbség meg nem adása,a közúti jelzőtáblák utasítása ellenére,47.4917833333333,19.080825,0,0,1,2,POINT (652515.2473903439 238649.85636808004),jármű-jármű,['Szerdahelyi utca']
2013-01-29,2013,Budapest VIII. kerület,könnyű sérüléses,"Keresztirányból érkező, egyenesen haladó járművek ütközése",elsőbbség meg nem adása,a jobbról érkező járműnek,47.4868027777778,19.0830916666667,0,0,1,2,POINT (652686.2892408316 238096.2155288859),jármű-jármű, Práter utca
2013-01-29,2013,Budapest VIII. kerület,könnyű sérüléses,"Gyalogos elütése az úttesten, tömegközlekedési jármű megállójában",gyalogosok hibája,"vigyázatlan, hirtelen lelépés az úttestre",47.5001111111111,19.0825805555556,0,0,1,2,POINT (652647.1288112685 239575.755733392),gyalogos,"['Fornetti', ' Baross téri aluljáró']"
2013-01-29,2013,Budapest VIII. kerület,könnyű sérüléses,"Utoléréses baleset két vagy több résztvevővel, az egyik megállt",egyéb,"figyelmetlen, gondatlan vezetés",47.4969,19.0699055555556,0,0,1,3,POINT (651692.2927220535 239218.4211599116),jármű-jármű,Blaha Lujza tér  Rákóczi út
2013-01-29,2013,Budapest VIII. kerület,könnyű sérüléses,"Utoléréses baleset két vagy több résztvevővel, az egyik megállt","irányváltoztatási, haladási, bekanyarodási hiba",követés távolság be nem tartása,47.4961888888889,19.0709027777778,0,0,1,2,POINT (651767.4505048726 239139.38412406173),jármű-jármű,"[' József körút', ' Józsefváros']"
2013-02-01,2013,Budapest VIII. kerület,súlyos sérüléses,"Egyéb, azonos irányba haladó kanyarodó járművek  ütközése.","irányváltoztatási, haladási, bekanyarodási hiba",forgalmi sáv szabálytalan változtatása,47.4927416666667,19.0710083333333,0,1,1,2,POINT (651775.5136283527 238756.1405311049),gyalogos,Rákóczi tér M  József körút
2013-02-10,2013,Budapest VIII. kerület,könnyű sérüléses,Menetirány szerint a JOBB oldalon várakozó járműnek ütközés,sebesség nem megfelelő alkalmazása,az időjárási és látási viszonyokhoz,47.4894083333333,19.0844444444444,0,0,1,2,POINT (652788.1000862217 238385.93424174876),jármű-jármű,[' Dankó utca']
2013-02-10,2013,Budapest VIII. kerület,súlyos sérüléses,"Keresztirányból érkező, egyenesen haladó járművek ütközése","irányváltoztatási, haladási, bekanyarodási hiba",a balra kanyarodó jármű vezetője a  szemben egyenesen haladó és jobbra kanyarodó járműnek nem biztosított elsőbbséget,47.4891527777778,19.0630916666667,0,1,0,2,POINT (651179.0636651044 238357.00423101918),jármű-jármű,"['2-4', ' Üllői út']"
2013-02-11,2013,Budapest VIII. kerület,súlyos sérüléses,"Keresztirányból érkező, egyenesen haladó járművek ütközése",elsőbbség meg nem adása,a közúti jelzőtáblák utasítása ellenére,47.4958333333333,19.0806083333333,0,1,0,2,POINT (652498.7366499186 239100.10940537832),jármű-jármű,"['e-töltőpont', ' 18', ' II. János Pál pápa tér']"
2013-02-13,2013,Budapest VIII. kerület,könnyű sérüléses,Gyalogos elütése útkereszteződésen kívül,gyalogosok hibája,"álló jármű vagy oszlop (fa, egyéb akadály) előtt való áthaladás",47.4910055555556,19.0847638888889,0,0,1,2,POINT (652812.0896544879 238563.51672889522),gyalogos,[' Magdolna utca']
2013-02-13,2013,Budapest VIII. kerület,könnyű sérüléses,"Egyéb, azonos irányba haladó kanyarodó járművek  ütközése.",egyéb,megfelelő oldaltávolság hiánya,47.48931111111109,19.0919138888889,0,0,1,2,POINT (653350.9671169868 238375.4107448641),gyalogos,['Orczy tér']
2013-02-18,2013,Budapest VIII. kerület,könnyű sérüléses,"Keresztirányból érkező, egyenesen haladó járművek ütközése",elsőbbség meg nem adása,a jobbról érkező járműnek,47.4904722222222,19.0703305555556,0,0,1,2,POINT (651724.513018554 238503.82019328524),jármű-jármű,[' Krúdy Gyula utca']
2013-02-19,2013,Budapest VIII. kerület,könnyű sérüléses,Egyéb közlekedési baleset gyalogossal,gyalogosok hibája,zavaró magatartás az úttesten való áthaladás közben,47.4894083333333,19.0910472222222,0,0,1,2,POINT (653285.6533366692 238386.1835860509),gyalogos,"['Baross Irodaház', ' Baross utca', ' Orczy Fórum Városközpont']"
2013-02-22,2013,Budapest VIII. kerület,könnyű sérüléses,"Gyalogos elütése nem útkereszteződésben, kijelölt gyalogos-átkelőhelyen",elsőbbség meg nem adása,gyalogosoknak kijelölt gyalogátkelőhelyen,47.4997777777778,19.0873888888889,0,0,1,1,POINT (653009.4066529245 239538.86599956432),gyalogos,"['Biztosítóberendezési Főnökség', ' Kerepesi út']"
2013-02-27,2013,Budapest VIII. kerület,könnyű sérüléses,"Szembe haladó járművek ütközése útkereszteződésben, az egyik résztvevő BALRA kanyarodik","irányváltoztatási, haladási, bekanyarodási hiba",a balra kanyarodó jármű vezetője a  szemben egyenesen haladó és jobbra kanyarodó járműnek nem biztosított elsőbbséget,47.4955444444444,19.1008138888889,0,0,1,2,POINT (654021.165904635 239068.81279847826),jármű-jármű,[' Asztalos Sándor út']
2013-03-01,2013,Budapest VIII. kerület,súlyos sérüléses,"Keresztirányból érkező, egyenesen haladó járművek ütközése",elsőbbség meg nem adása,a jobbról érkező járműnek,47.4935805555556,19.0710472222222,0,1,0,2,POINT (651778.4171099035 238849.40503939544),jármű-jármű, József körút
2013-03-04,2013,Budapest VIII. kerület,könnyű sérüléses,ütközés két jármű egyidejű forgalmi sávváltása közben,elsőbbség meg nem adása,a közúti jelzőtáblák utasítása ellenére,47.4891222222222,19.0804444444444,0,0,1,2,POINT (652486.6924814007 238353.99519991223),jármű-jármű,[' Baross utca']
2013-03-05,2013,Budapest VIII. kerület,könnyű sérüléses,Utoléréses ütközés két vagy több mozgásban lévő résztvevővel,"irányváltoztatási, haladási, bekanyarodási hiba",követés távolság be nem tartása,47.4995361111111,19.0818,0,0,2,3,POINT (652588.3489912534 239511.80456783643),jármű-jármű,Intercity Hotel  7-8  Baross tér
2013-03-05,2013,Budapest VIII. kerület,könnyű sérüléses,"Egyéb, azonos irányba haladó kanyarodó járművek  ütközése.","irányváltoztatási, haladási, bekanyarodási hiba",forgalmi sáv szabálytalan változtatása,47.4956111111111,19.0653888888889,0,0,1,2,POINT (651352.0175877783 239075.04548247342),gyalogos,['Uránia']
2013-03-12,2013,Budapest VIII. kerület,könnyű sérüléses,Gyalogos elütése útkereszteződésen kívül,gyalogosok hibája,"álló jármű vagy oszlop (fa, egyéb akadály) előtt való áthaladás",47.4910666666667,19.0819888888889,0,0,1,2,POINT (652602.9825329168 238570.2176659507),gyalogos,[' Dankó utca']
2013-03-13,2013,Budapest VIII. kerület,könnyű sérüléses,"Utoléréses baleset két vagy több résztvevővel, az egyik megállt","irányváltoztatási, haladási, bekanyarodási hiba",követés távolság be nem tartása,47.4949916666667,19.1088833333333,0,0,1,4,POINT (654629.2169312937 239007.79532202033),jármű-jármű,"['Lidl', ' 26', ' Hungária körút']"
2013-03-16,2013,Budapest VIII. kerület,könnyű sérüléses,"Egyéb keresztirányból érkező, kanyarodó járműütközések",elsőbbség meg nem adása,a közúti jelzőtáblák utasítása ellenére,47.4753361111111,19.0981444444444,0,0,2,2,POINT (653821.4576672057 236822.0208783527),jármű-jármű,"['Könyves Kálmán körút', ' Szent László Kórház']"
2013-03-22,2013,Budapest VIII. kerület,könnyű sérüléses,Utoléréses ütközés két vagy több mozgásban lévő résztvevővel,"irányváltoztatási, haladási, bekanyarodási hiba",követés távolság be nem tartása,47.4783888888889,19.0914416666667,0,0,1,2,POINT (653316.0486255313 237161.11383208932),jármű-jármű,[' Üllői út']
2013-03-23,2013,Budapest VIII. kerület,súlyos sérüléses,"Szembe haladó járművek ütközése útkereszteződésben, az egyik résztvevő BALRA kanyarodik","irányváltoztatási, haladási, bekanyarodási hiba",egyenes irányban haladó jármű forgalmának akadályozása,47.4894861111111,19.0620555555556,0,1,0,2,POINT (651100.980590368 238394.04862151848),jármű-jármű,['Üllői út']
2013-03-24,2013,Budapest VIII. kerület,könnyű sérüléses,"Keresztirányból érkező, egyenesen haladó járművek ütközése",elsőbbség meg nem adása,a közúti jelzőtáblák utasítása ellenére,47.4894444444444,19.0707472222222,0,0,1,2,POINT (651755.9427768074 238389.56568538013),jármű-jármű,"['Spar Market', ' 50', ' József körút', ' Józsefváros']"
2013-03-26,2013,Budapest VIII. kerület,könnyű sérüléses,"Pályaelhagyás járművel egyenes úton, a menetirány szerinti BAL oldalon",sebesség nem megfelelő alkalmazása,"az útviszonyokhoz (az út vonalvezetéséhez, útburkolat minőségéhez)",47.487,19.1078583333333,0,0,1,1,POINT (654552.6599508537 238119.26160687074),egy jármű,['Könyves Kálmán körút']
2013-03-26,2013,Budapest VIII. kerület,súlyos sérüléses,"Egyéb keresztirányból érkező, kanyarodó járműütközések",sebesség nem megfelelő alkalmazása,a forgalmi viszonyokhoz,47.4778055555556,19.0926388888889,0,1,5,5,POINT (653406.3207984231 237096.31207286916),jármű-jármű,"['Üllői út', ' Szent László Kórház']"
2013-03-29,2013,Budapest VIII. kerület,súlyos sérüléses,"Keresztirányból érkező, egyenesen haladó járművek ütközése",elsőbbség meg nem adása,a forgalomba való bekapcsolódáskor,47.4947611111111,19.0853166666667,0,1,0,2,POINT (652853.5467851001 238981.06085809972),jármű-jármű,['Fiumei út']
2013-03-31,2013,Budapest VIII. kerület,könnyű sérüléses,"Keresztirányból érkező, egyenesen haladó járművek ütközése",egyéb,"rendőr, vagy lámpa jelzésre nem állt  meg",47.4927416666667,19.0710083333333,0,0,1,2,POINT (651775.5136283527 238756.1405311049),jármű-jármű,Rákóczi tér M  József körút
2013-04-01,2013,Budapest VIII. kerület,súlyos sérüléses,Gyalogos elütése útkereszteződésen kívül,gyalogosok hibája,"vigyázatlan, hirtelen lelépés az úttestre",47.4950694444444,19.0632138888889,0,1,0,2,POINT (651188.1506055123 239014.79255872112),gyalogos,[' Rákóczi út']
2013-04-03,2013,Budapest VIII. kerület,súlyos sérüléses,Gyalogos elütése útkereszteződésben kijelölt gyalogos-átkelőhelyen,elsőbbség meg nem adása,gyalogosoknak kijelölt gyalogátkelőhelyen,47.4933333333333,19.0899972222222,0,1,0,1,POINT (653206.2991912666 238822.50364445586),gyalogos,"['Kossuth-mauzóleum', ' 48-asok útja']"
2013-04-05,2013,Budapest VIII. kerület,könnyű sérüléses,Keresztirányból érkező járművek ütközése kettőnél több résztvevővel,egyéb,"rendőr, vagy lámpa jelzésre nem állt  meg",47.4800083333333,19.0865722222222,0,0,2,2,POINT (652948.9471061957 237340.96537936313),jármű-jármű,Barkácsbolt  kulcsmásolás  Üllői út
2013-04-05,2013,Budapest VIII. kerület,könnyű sérüléses,"Keresztirányból érkező, egyenesen haladó járművek ütközése",elsőbbség meg nem adása,a jobbról érkező járműnek,47.4999194444444,19.1061083333333,0,0,2,2,POINT (654419.725226703 239555.48507498938),jármű-jármű,['Százados út']
2013-04-07,2013,Budapest VIII. kerület,súlyos sérüléses,"Pályaelhagyás járművel egyenes úton, a menetirány szerinti JOBB oldalon és szilárd tárgynak ütközés az útpályán kívül (fa, oszlop, támfal stb.)",sebesség nem megfelelő alkalmazása,"az útviszonyokhoz (az út vonalvezetéséhez, útburkolat minőségéhez)",47.4893888888889,19.0781444444444,0,1,0,1,POINT (652313.3634972712 238383.57377972204),egy jármű, Baross utca
2013-04-11,2013,Budapest VIII. kerület,könnyű sérüléses,"Keresztirányból érkező járművek ütközése, az egyik jármű BALRA  kanyarodik.",egyéb,"rendőr, vagy lámpa jelzésre nem állt  meg",47.4858888888889,19.0698888888889,0,0,2,2,POINT (651691.370767958 237994.25858853367),jármű-jármű,"['BKK-automata', ' Corvin-negyed aluljáró']"
2013-04-17,2013,Budapest VIII. kerület,könnyű sérüléses,Gyalogos elütése útkereszteződésben nem kijelölt gyalogos-átkelőhelyen,elsőbbség meg nem adása,a gyalogosnak kanyarodáskor,47.4927416666667,19.0710083333333,0,0,1,1,POINT (651775.5136283527 238756.1405311049),gyalogos,Rákóczi tér M  József körút
2013-04-17,2013,Budapest VIII. kerület,könnyű sérüléses,"Gyalogos elütése nem útkereszteződésben, kijelölt gyalogos-átkelőhelyen",elsőbbség meg nem adása,a gyalogosnak kanyarodáskor,47.4893888888889,19.0781444444444,0,0,1,1,POINT (652313.3634972712 238383.57377972204),gyalogos, Baross utca
2013-04-22,2013,Budapest VIII. kerület,könnyű sérüléses,"Egyéb, várakozó járműnek ütközés",egyéb,"figyelmetlen, gondatlan vezetés",47.488,19.0652194444444,0,0,1,2,POINT (651339.4307387011 238228.8760140814),gyalogos,[' Üllői út']
2013-04-22,2013,Budapest VIII. kerület,könnyű sérüléses,"Keresztirányból érkező járművek ütközése, az egyik jármű BALRA  kanyarodik.",egyéb,"rendőr, vagy lámpa jelzésre nem állt  meg",47.48,19.0865805555556,0,0,1,2,POINT (652949.5756276142 237340.0392279295),jármű-jármű,Barkácsbolt  kulcsmásolás  Üllői út
2013-04-22,2013,Budapest VIII. kerület,súlyos sérüléses,Egyéb közlekedési baleset gyalogossal,egyéb,egyéb,47.4973333333333,19.071275,0,1,0,1,POINT (651795.4588265045 239266.62620682892),jármű-jármű,['Blaha Lujza tér M']
2013-04-23,2013,Budapest VIII. kerület,könnyű sérüléses,ütközés BALRÓL JOBBRA történő sávváltás közben,"irányváltoztatási, haladási, bekanyarodási hiba",forgalmi sáv szabálytalan változtatása,47.4888611111111,19.0848583333333,0,0,1,2,POINT (652819.3169829543 238325.11115233682),jármű-jármű,"['Kálvária tér', ' Baross utca']"
2013-04-23,2013,Budapest VIII. kerület,könnyű sérüléses,"Utoléréses baleset két vagy több résztvevővel, az egyik megállt","irányváltoztatási, haladási, bekanyarodási hiba",követés távolság be nem tartása,47.4981666666667,19.0814416666667,0,0,1,2,POINT (652561.415911001 239359.5446138734),jármű-jármű,"['Betyártanya', ' Fiumei út']"
2013-04-25,2013,Budapest VIII. kerület,súlyos sérüléses,Gyalogos elütése útkereszteződésben nem kijelölt gyalogos-átkelőhelyen,elsőbbség meg nem adása,a gyalogosnak kanyarodáskor,47.49575,19.0751388888889,0,1,1,1,POINT (652086.6390045008 239090.69032936945),gyalogos,"['14/B', ' Kiss József utca']"
2013-04-25,2013,Budapest VIII. kerület,könnyű sérüléses,"Azonos irányból érkező járművek ütközése útkereszteződésben, az egyik jármű BALRA kanyarodik","irányváltoztatási, haladási, bekanyarodási hiba","a balra kanyarodó jármű vezetője nem  győződött meg meg a balra kanyarodás előtt, hogy előzését más jármű megkezdte-e",47.4897583333333,19.0859472222222,0,0,1,4,POINT (652901.3235148333 238424.89858639048),jármű-jármű,"['Kálvária tér', ' Karácsony Sándor utca']"
2013-04-28,2013,Budapest VIII. kerület,könnyű sérüléses,"Gyalogos elütése az úttesten, tömegközlekedési jármű megállójában",egyéb,"figyelmetlen, gondatlan vezetés",47.4999694444444,19.0833277777778,0,0,1,1,POINT (652703.4314755267 239560.03063982585),gyalogos,"['Keleti pályaudvar M', ' Baross téri aluljáró']"
2013-05-01,2013,Budapest VIII. kerület,súlyos sérüléses,Azonos irányból érkező járművek ütközése az egyik jármű megfordul,"irányváltoztatási, haladási, bekanyarodási hiba",szabálytalan megfordulás,47.4807777777778,19.0844416666667,0,2,0,2,POINT (652788.3310490488 237426.43236117053),jármű-jármű,"['Vödör bár', ' 109/C', ' Üllői út']"
2013-05-02,2013,Budapest VIII. kerület,könnyű sérüléses,"Utoléréses baleset két vagy több résztvevővel, az egyik megállt","irányváltoztatási, haladási, bekanyarodási hiba",követés távolság be nem tartása,47.48958333333331,19.0761083333333,0,0,1,1,POINT (652159.9243772455 238405.13511948747),jármű-jármű,"['Három Sas gyógyszertár', ' 70-72', ' Baross utca']"
2013-05-03,2013,Budapest VIII. kerület,könnyű sérüléses,"Szembe haladó járművek ütközése, legalább az egyik résztvevő kanyarodik vagy megfordul","irányváltoztatási, haladási, bekanyarodási hiba",a balra kanyarodó jármű vezetője a  szemben egyenesen haladó és jobbra kanyarodó járműnek nem biztosított elsőbbséget,47.4868722222222,19.0927388888889,0,0,1,2,POINT (653413.2884236467 238104.30192419112),jármű-jármű,"['Foxpost', ' 48', ' Orczy út']"
2013-05-05,2013,Budapest VIII. kerület,súlyos sérüléses,Gyalogos elütése útkereszteződésen kívül,gyalogosok hibája,"vigyázatlan, hirtelen lelépés az úttestre",47.4907666666667,19.0824333333333,0,1,0,2,POINT (652636.4871067089 238536.87953090633),gyalogos,"['Oltalom Karitatív Egyesület Fűtött utca', ' 15', ' Dankó utca']"
2013-05-07,2013,Budapest VIII. kerület,súlyos sérüléses,"Azonos irányból érkező járművek ütközése útkereszteződésben, az egyik jármű JOBBRA kanyarodik","irányváltoztatási, haladási, bekanyarodási hiba",forgalmi sáv szabálytalan változtatása,47.4800083333333,19.0865722222222,0,1,0,2,POINT (652948.9471061957 237340.96537936313),jármű-jármű,Barkácsbolt  kulcsmásolás  Üllői út
2013-05-10,2013,Budapest VIII. kerület,súlyos sérüléses,"Egyéb, azonos irányba haladó kanyarodó járművek  ütközése.","irányváltoztatási, haladási, bekanyarodási hiba",forgalmi sáv szabálytalan változtatása,47.4990555555556,19.1082472222222,0,1,0,2,POINT (654580.9428194178 239459.56270107633),gyalogos,"['Hungi Virág', ' 5-7', ' Szörény utca']"
2013-05-19,2013,Budapest VIII. kerület,súlyos sérüléses,Egyéb közlekedési baleset gyalogossal,gyalogosok hibája,tiltott helyen való áthaladás,47.4927416666667,19.0710083333333,0,1,0,2,POINT (651775.5136283527 238756.1405311049),gyalogos,Rákóczi tér M  József körút
2013-05-21,2013,Budapest VIII. kerület,könnyű sérüléses,"Egyéb, várakozó járműnek ütközés",sebesség nem megfelelő alkalmazása,"az útviszonyokhoz (az út vonalvezetéséhez, útburkolat minőségéhez)",47.4872166666667,19.0905166666667,0,0,1,2,POINT (653245.8039943926 238142.50330471483),gyalogos,"[' Kőris utca', ' Orczy Fórum Városközpont']"
2013-05-21,2013,Budapest VIII. kerület,súlyos sérüléses,"Azonos irányból érkező járművek ütközése útkereszteződésben, az egyik jármű BALRA kanyarodik","irányváltoztatási, haladási, bekanyarodási hiba",szabálytalan megfordulás,47.4877777777778,19.070275,0,1,1,2,POINT (651720.4098640294 238204.26388250236),jármű-jármű,"['Horváth és Társai Szépségszalon', ' 69', ' József körút']"
2013-05-22,2013,Budapest VIII. kerület,könnyű sérüléses,"Egyéb, azonos irányba haladó kanyarodó járművek  ütközése.","irányváltoztatási, haladási, bekanyarodási hiba",követés távolság be nem tartása,47.4911972222222,19.1087805555556,0,0,1,2,POINT (654621.7978535538 238585.9412290284),gyalogos,"['Hidegkuti Nándor Stadion', ' Hungária körút']"
2013-05-23,2013,Budapest VIII. kerület,könnyű sérüléses,Egyéb baleset azonos irányba egyenesen haladó járművek között,egyéb,megfelelő oldaltávolság hiánya,47.4946027777778,19.0613694444444,0,0,1,2,POINT (651049.1855622745 238962.88637354583),jármű-jármű,"['ELTE BTK R épület', ' 5', ' Rákóczi út']"
2013-05-24,2013,Budapest VIII. kerület,súlyos sérüléses,Gyalogos elütése útkereszteződésen kívül,gyalogosok hibája,"álló jármű vagy oszlop (fa, egyéb akadály) előtt való áthaladás",47.4973805555556,19.0715222222222,0,2,0,2,POINT (651814.083965389 239271.88159317683),gyalogos,"['Gyöngy-ház', ' 41', ' Rákóczi út']"
2013-05-24,2013,Budapest VIII. kerület,könnyű sérüléses,ütközés JOBBRÓL BALRA történő sávváltás közben,"irányváltoztatási, haladási, bekanyarodási hiba",forgalmi sáv szabálytalan változtatása,47.4780722222222,19.0920944444444,0,0,1,2,POINT (653365.2686194194 237125.93568116694),jármű-jármű,"['A. épület', ' 86', ' Üllői út']"
2013-05-25,2013,Budapest VIII. kerület,könnyű sérüléses,Keresztirányból érkező járművek ütközése kettőnél több résztvevővel,elsőbbség meg nem adása,a jobbról érkező járműnek,47.4948055555556,19.0740527777778,0,0,2,2,POINT (652004.8389636528 238985.66419641257),jármű-jármű,"['Józsefvárosi Egységes Gyógypedagógiai Módszertani Intézmény és Általános Iskola', ' 11-15', ' Tolnai Lajos utca', ' Józsefváros']"
2013-05-28,2013,Budapest VIII. kerület,könnyű sérüléses,"Egyéb, azonos irányba haladó kanyarodó járművek  ütközése.",elsőbbség meg nem adása,a forgalomba való bekapcsolódáskor,45.0371444444444,10.7874805555556,0,0,1,2,POINT (0.23896893626079 144.0263402867131),gyalogos,
2013-05-29,2013,Budapest VIII. kerület,könnyű sérüléses,"Keresztirányból érkező, egyenesen haladó járművek ütközése",elsőbbség meg nem adása,a forgalomba való bekapcsolódáskor,47.4969,19.0699055555556,0,0,1,2,POINT (651692.2927220535 239218.4211599116),jármű-jármű,Blaha Lujza tér  Rákóczi út
2013-06-08,2013,Budapest VIII. kerület,könnyű sérüléses,Utasbalesetek,egyéb,"járművezető figyelmének elvonása, járművezető zavarása",47.4895555555556,19.089725,0,0,1,1,POINT (653186.0084795578 238402.4977345277),utasbaleset,"['Orczy tér', ' Dobozi utca']"
2013-06-08,2013,Budapest VIII. kerület,súlyos sérüléses,"A menetirány szerint JOBB oldalon álló, várakozó jármű, egyéb akadály előtt (mögött) áthaladó gyalogos elütése",gyalogosok hibája,"vigyázatlan, hirtelen lelépés az úttestre",47.4840277777778,19.0929777777778,0,1,0,2,POINT (653431.4704361794 237788.08107485867),gyalogos,"['17-19', ' Orczy út', ' Orczy Fórum Városközpont']"
2013-06-09,2013,Budapest VIII. kerület,könnyű sérüléses,"Utoléréses baleset két vagy több résztvevővel, az egyik megállt",sebesség nem megfelelő alkalmazása,a forgalmi viszonyokhoz,47.4865,19.1076583333333,0,0,2,2,POINT (654537.6302594614 238063.6626924619),jármű-jármű,"['Kőbányai út', ' Taraliget lakópark']"
2013-06-12,2013,Budapest VIII. kerület,súlyos sérüléses,"Egyéb, azonos irányba haladó kanyarodó járművek  ütközése.",sebesség nem megfelelő alkalmazása,egyéb,47.4996305555556,19.0829194444444,0,1,0,2,POINT (652672.6841473966 239522.34092304917),gyalogos,Kerepesi út
2013-06-13,2013,Budapest VIII. kerület,súlyos sérüléses,Egyéb közlekedési baleset gyalogossal,gyalogosok hibája,tilos jelzésen való áthaladás,47.4956861111111,19.0842722222222,0,1,0,2,POINT (652774.8035124071 239083.86153435794),gyalogos,Fiumei út
2013-06-14,2013,Budapest VIII. kerület,könnyű sérüléses,"Keresztirányból érkező, egyenesen haladó járművek ütközése",elsőbbség meg nem adása,a közúti jelzőtáblák utasítása ellenére,47.4958333333333,19.080525,0,0,1,2,POINT (652492.4578161743 239100.1068355465),jármű-jármű,[' II. János Pál pápa tér']
2013-06-14,2013,Budapest VIII. kerület,könnyű sérüléses,"Keresztirányból érkező járművek ütközése, nem útkereszteződésben (telek, parkoló, garage stb.)",egyéb,"rendőr, vagy lámpa jelzésre nem állt  meg",47.4999583333333,19.0840111111111,0,0,1,2,POINT (652754.9144510168 239558.8184718981),jármű-jármű,"['Keleti pályaudvar', ' 1', ' Baross tér']"
2013-06-14,2013,Budapest VIII. kerület,könnyű sérüléses,Utasbalesetek,"irányváltoztatási, haladási, bekanyarodási hiba",követés távolság be nem tartása,47.4969,19.0699055555556,0,0,1,1,POINT (651692.2927220535 239218.4211599116),utasbaleset,Blaha Lujza tér  Rákóczi út
2013-06-17,2013,Budapest VIII. kerület,könnyű sérüléses,Egyéb közlekedési baleset gyalogossal,gyalogosok hibája,tiltott helyen való áthaladás,47.4894333333333,19.0776638888889,0,0,1,2,POINT (652277.1493114687 238388.50130820047),gyalogos,[' Baross utca']
2013-06-18,2013,Budapest VIII. kerület,könnyű sérüléses,"Gyalogos elütése nem útkereszteződésben, kijelölt gyalogos-átkelőhelyen",egyéb,"rendőr, vagy lámpa jelzésre nem állt  meg",47.49953888888889,19.0829416666667,0,0,1,1,POINT (652674.36286374 239512.15057812067),gyalogos,Keleti pályaudvar  Kerepesi út
2013-06-19,2013,Budapest VIII. kerület,súlyos sérüléses,"Gyalogos elütése nem útkereszteződésben, kijelölt gyalogos-átkelőhelyen",elsőbbség meg nem adása,gyalogosoknak kijelölt gyalogátkelőhelyen,47.4882222222222,19.1005805555556,0,1,0,1,POINT (654004.1267103843 238254.75176373357),gyalogos,"['239-es épület', ' 27', ' Kőbányai út']"
2013-06-19,2013,Budapest VIII. kerület,súlyos sérüléses,Egyéb egyjárműves (magányos) közlekedési baleset,sebesség nem megfelelő alkalmazása,egyéb,47.4814194444444,19.08255,0,1,0,1,POINT (652645.7300060648 237497.70586195594),egy jármű,[' Üllői út']
2013-06-20,2013,Budapest VIII. kerület,súlyos sérüléses,"Utoléréses baleset két vagy több résztvevővel, az egyik megállt",sebesség nem megfelelő alkalmazása,a forgalmi viszonyokhoz,47.4916944444444,19.0887472222222,0,1,0,3,POINT (653112.2058891095 238640.25068174812),jármű-jármű,['Fiumei út']
2013-06-21,2013,Budapest VIII. kerület,könnyű sérüléses,"Egyéb, azonos irányba haladó kanyarodó járművek  ütközése.","irányváltoztatási, haladási, bekanyarodási hiba","jobbra kis ívű, balra nagy ívű kanyarodási szabály megszegése",47.4938527777778,19.06035,0,0,1,2,POINT (650972.3852647126 238879.49285177927),gyalogos,['Múzeum körút']
2013-06-21,2013,Budapest VIII. kerület,könnyű sérüléses,"Egyéb keresztirányból érkező, kanyarodó járműütközések",elsőbbség meg nem adása,a forgalomba való bekapcsolódáskor,47.4996111111111,19.0949694444444,0,0,1,2,POINT (653580.53965669 239520.64806281836),jármű-jármű,"['IMO', ' Kerepesi út']"
2013-06-23,2013,Budapest VIII. kerület,könnyű sérüléses,"Gyalogos elütése nem útkereszteződésben, kijelölt gyalogos-átkelőhelyen",gyalogosok hibája,tilos jelzésen való áthaladás,45.0371444444444,10.7874805555556,0,0,1,2,POINT (0.23896893626079 144.0263402867131),gyalogos,
2013-06-24,2013,Budapest VIII. kerület,súlyos sérüléses,"Keresztirányból érkező, egyenesen haladó járművek ütközése",elsőbbség meg nem adása,a jobbról érkező járműnek,47.4939444444444,19.0733027777778,0,1,0,2,POINT (651948.3586466544 238889.91178928112),jármű-jármű,"['25/A', ' Bérkocsis utca', ' Józsefváros']"
2013-06-25,2013,Budapest VIII. kerület,súlyos sérüléses,Gyalogos elütése útkereszteződésben nem kijelölt gyalogos-átkelőhelyen,gyalogosok hibája,tiltott helyen való áthaladás,47.4931166666667,19.06075,0,1,0,2,POINT (651002.5375408735 238797.66013516102),gyalogos,"['ELTE BTK A épület', ' 4/A', ' Múzeum körút']"
2013-06-27,2013,Budapest VIII. kerület,könnyű sérüléses,"Azonos irányból érkező járművek ütközése útkereszteződésben, az egyik jármű BALRA kanyarodik","irányváltoztatási, haladási, bekanyarodási hiba",szabálytalan megfordulás,47.4818555555556,19.0812666666667,0,0,1,2,POINT (652548.9893764182 237546.14921067463),jármű-jármű,['Zöld Macska Diákpince']
2013-06-28,2013,Budapest VIII. kerület,súlyos sérüléses,Gyalogos elütése útkereszteződésben kijelölt gyalogos-átkelőhelyen,gyalogosok hibája,tilos jelzésen való áthaladás,47.4927416666667,19.0710083333333,0,1,1,2,POINT (651775.5136283527 238756.1405311049),gyalogos,Rákóczi tér M  József körút
2013-07-04,2013,Budapest VIII. kerület,súlyos sérüléses,"Keresztirányból érkező, azonos irányba továbbhaladó  járművek ütközése, az egyik jármű JOBBRA  kanyarodik",egyéb,"rendőr, vagy lámpa jelzésre nem állt  meg",47.4894444444444,19.0703888888889,0,1,1,2,POINT (651728.9405339678 238389.55808813934),jármű-jármű,[' Baross utca']
2013-07-04,2013,Budapest VIII. kerület,könnyű sérüléses,Utoléréses ütközés két vagy több mozgásban lévő résztvevővel,"irányváltoztatási, haladási, bekanyarodási hiba",követés távolság be nem tartása,47.4802027777778,19.0920055555556,0,0,2,3,POINT (653358.4373392597 237362.7960080588),jármű-jármű,"['2-4', ' Orczy út']"
2013-07-06,2013,Budapest VIII. kerület,súlyos sérüléses,Gyalogos elütése útkereszteződésen kívül,gyalogosok hibája,"vigyázatlan, hirtelen lelépés az úttestre",47.4893277777778,19.0876111111111,0,1,0,2,POINT (653026.7291747383 238377.09280860313),gyalogos,['Lujza utca']
2013-07-11,2013,Budapest VIII. kerület,könnyű sérüléses,"Egyéb, azonos irányba haladó kanyarodó járművek  ütközése.","irányváltoztatási, haladási, bekanyarodási hiba",követés távolság be nem tartása,47.4918833333333,19.0614083333333,0,0,1,2,POINT (651052.1653840482 238660.55197177068),gyalogos,Múzeum  12  Múzeum körút
2013-07-12,2013,Budapest VIII. kerület,könnyű sérüléses,"Utoléréses baleset két vagy több résztvevővel, az egyik megállt","irányváltoztatási, haladási, bekanyarodási hiba",követés távolság be nem tartása,47.4996111111111,19.0931638888889,0,0,1,2,POINT (653444.5079732881 239520.56889067998),jármű-jármű,"['Aréna plaza mélygarázs kijárat', ' Kerepesi út']"
2013-07-15,2013,Budapest VIII. kerület,könnyű sérüléses,Utasbalesetek,egyéb,"figyelmetlen, gondatlan vezetés",47.4882222222222,19.1005722222222,0,0,1,1,POINT (654003.4987368722 238254.75134594573),utasbaleset,239-es épület  27  Kőbányai út
2013-07-18,2013,Budapest VIII. kerület,súlyos sérüléses,Gyalogos elütése útkereszteződésen kívül,gyalogosok hibája,tiltott helyen való áthaladás,47.4963916666667,19.0830416666667,0,1,0,2,POINT (652682.0512229472 239162.26028190478),gyalogos,"['4-12', ' Dologház utca']"
2013-07-19,2013,Budapest VIII. kerület,könnyű sérüléses,"Keresztirányból érkező járművek ütközése, az egyik jármű BALRA  kanyarodik.",egyéb,"rendőr, vagy lámpa jelzésre nem állt  meg",47.4956861111111,19.0842722222222,0,0,1,2,POINT (652774.8035124071 239083.86153435794),jármű-jármű,Fiumei út
2013-07-24,2013,Budapest VIII. kerület,könnyű sérüléses,"Gyalogos elütése nem útkereszteződésben, kijelölt gyalogos-átkelőhelyen",elsőbbség meg nem adása,a gyalogosnak kanyarodáskor,47.4923888888889,19.0716638888889,0,0,1,1,POINT (651824.9215902839 238716.9347699324),gyalogos,"[' Rákóczi tér', ' Józsefváros']"
2013-07-27,2013,Budapest VIII. kerület,könnyű sérüléses,"Utoléréses baleset két vagy több résztvevővel, az egyik megállt","irányváltoztatási, haladási, bekanyarodási hiba",követés távolság be nem tartása,47.4904277777778,19.1087555555556,0,0,1,4,POINT (654619.9799032396 238500.39669250627),jármű-jármű,Hungária körút
2013-07-29,2013,Budapest VIII. kerület,könnyű sérüléses,"Egyéb, várakozó járműnek ütközés",egyéb,egyéb,47.4848333333333,19.0744694444444,0,0,1,2,POINT (652036.6010129149 237877.0114505802),gyalogos,[' Futó utca']
2013-07-30,2013,Budapest VIII. kerület,könnyű sérüléses,Gyalogos elütése útkereszteződésben kijelölt gyalogos-átkelőhelyen,elsőbbség meg nem adása,a gyalogosnak kanyarodáskor,47.4919666666667,19.0813583333333,0,0,1,1,POINT (652555.4264501624 238670.25520369553),gyalogos,[' Szerdahelyi utca']
2013-07-31,2013,Budapest VIII. kerület,súlyos sérüléses,Egyéb közlekedési baleset gyalogossal,gyalogosok hibája,"álló jármű vagy oszlop (fa, egyéb akadály) előtt való áthaladás",47.4899916666667,19.0708055555556,0,1,0,2,POINT (651760.3211888896 238450.4044324976),gyalogos,"['Harminckettesek tere', ' József körút', ' Józsefváros']"
2013-07-31,2013,Budapest VIII. kerület,könnyű sérüléses,"Egyéb keresztirányból érkező, kanyarodó járműütközések",elsőbbség meg nem adása,a jobbról érkező járműnek,47.4935805555556,19.0710472222222,0,0,1,2,POINT (651778.4171099035 238849.40503939544),jármű-jármű, József körút
2013-07-31,2013,Budapest VIII. kerület,könnyű sérüléses,Egyéb egyjárműves (magányos) közlekedési baleset,sebesség nem megfelelő alkalmazása,"az útviszonyokhoz (az út vonalvezetéséhez, útburkolat minőségéhez)",47.4800083333333,19.0865722222222,0,0,1,1,POINT (652948.9471061957 237340.96537936313),egy jármű,Barkácsbolt  kulcsmásolás  Üllői út
2013-08-02,2013,Budapest VIII. kerület,könnyű sérüléses,"Pályaelhagyás járművel egyenes úton, a menetirány szerinti JOBB oldalon és szilárd tárgynak ütközés az útpályán kívül (fa, oszlop, támfal stb.)",sebesség nem megfelelő alkalmazása,egyéb,47.48825,19.1001388888889,0,0,1,1,POINT (653970.842077125 238257.8179090011),egy jármű,"['221-es épület/Ganz', ' Kőbányai út']"
2013-08-04,2013,Budapest VIII. kerület,súlyos sérüléses,Egyéb egyjárműves (magányos) közlekedési baleset,sebesség nem megfelelő alkalmazása,egyéb,47.48515,19.1064055555556,0,1,0,1,POINT (654443.3328923222 237913.50586528215),egy jármű,"['OMV', ' 76', ' Könyves Kálmán körút']"
2013-08-06,2013,Budapest VIII. kerület,súlyos sérüléses,"Egyéb, azonos irányba haladó kanyarodó járművek  ütközése.","irányváltoztatási, haladási, bekanyarodási hiba",forgalmi sáv szabálytalan változtatása,47.4979444444444,19.081725,0,1,0,2,POINT (652582.7734829903 239334.8479886695),gyalogos,[' Fiumei út']
2013-08-06,2013,Budapest VIII. kerület,könnyű sérüléses,Gyalogos elütése útkereszteződésben nem kijelölt gyalogos-átkelőhelyen,elsőbbség meg nem adása,a gyalogosnak kanyarodáskor,47.4916944444444,19.0689138888889,0,0,1,1,POINT (651617.7266812257 238639.6722106546),gyalogos,[' Mária utca']
2013-08-11,2013,Budapest VIII. kerület,könnyű sérüléses,Gyalogos elütése útkereszteződésen kívül,gyalogosok hibája,"vigyázatlan, hirtelen lelépés az úttestre",47.4995361111111,19.0832972222222,0,0,1,2,POINT (652701.1508170594 239511.85359625908),gyalogos,Keleti pályaudvar M  Kerepesi út
2013-08-12,2013,Budapest VIII. kerület,könnyű sérüléses,"Keresztirányból érkező járművek ütközése, az egyik jármű BALRA  kanyarodik.",elsőbbség meg nem adása,egyéb,47.4962138888889,19.0686833333333,0,0,1,2,POINT (651600.2246322072 239142.11811586545),jármű-jármű,"['Corvin Áruház', ' 1-2', ' Blaha Lujza tér']"
2013-08-12,2013,Budapest VIII. kerület,könnyű sérüléses,"Keresztirányból érkező járművek ütközése, az egyik jármű BALRA  kanyarodik.",elsőbbség meg nem adása,a közúti jelzőtáblák utasítása ellenére,47.49953888888889,19.0829416666667,0,0,1,2,POINT (652674.36286374 239512.15057812067),jármű-jármű,Keleti pályaudvar  Kerepesi út
2013-08-12,2013,Budapest VIII. kerület,könnyű sérüléses,"Keresztirányból érkező, egyenesen haladó járművek ütközése",egyéb,"rendőr, vagy lámpa jelzésre nem állt  meg",45.0371444444444,10.7874805555556,0,0,1,3,POINT (0.23896893626079 144.0263402867131),jármű-jármű,
2013-08-16,2013,Budapest VIII. kerület,könnyű sérüléses,"Egyéb, azonos irányba haladó kanyarodó járművek  ütközése.","irányváltoztatási, haladási, bekanyarodási hiba",forgalmi sáv szabálytalan változtatása,47.4927416666667,19.0710083333333,0,0,1,2,POINT (651775.5136283527 238756.1405311049),gyalogos,Rákóczi tér M  József körút
2013-08-20,2013,Budapest VIII. kerület,könnyű sérüléses,"Keresztirányból érkező, egyenesen haladó járművek ütközése",egyéb,"rendőr, vagy lámpa jelzésre nem állt  meg",47.4893888888889,19.0781444444444,0,0,1,2,POINT (652313.3634972712 238383.57377972204),jármű-jármű, Baross utca
2013-08-21,2013,Budapest VIII. kerület,súlyos sérüléses,Egyéb egyjárműves (magányos) közlekedési baleset,sebesség nem megfelelő alkalmazása,"az útviszonyokhoz (az út vonalvezetéséhez, útburkolat minőségéhez)",47.4917138888889,19.0710972222222,0,1,0,1,POINT (651782.244364493 238641.87905450456),egy jármű,"[' József körút', ' Józsefváros']"
2013-08-25,2013,Budapest VIII. kerület,könnyű sérüléses,"Keresztirányból érkező járművek ütközése, az egyik jármű BALRA  kanyarodik.",elsőbbség meg nem adása,a forgalomba való bekapcsolódáskor,47.4893888888889,19.0781444444444,0,0,1,2,POINT (652313.3634972712 238383.57377972204),jármű-jármű, Baross utca
2013-08-28,2013,Budapest VIII. kerület,könnyű sérüléses,ütközés tolató járművel,"irányváltoztatási, haladási, bekanyarodási hiba",szabálytalan hátramenet,47.4896583333333,19.0730361111111,0,0,1,2,POINT (651928.4147772754 238413.39625701198),jármű-jármű,"['e-töltőpont', ' Baross utca']"
2013-08-28,2013,Budapest VIII. kerület,súlyos sérüléses,Utasbalesetek,egyéb,kapaszkodás elmulasztása,47.4890666666667,19.0658333333333,0,1,0,1,POINT (651385.6654759324 238347.47280776585),utasbaleset,"['Business Center 22', ' 22-26', ' Baross utca']"
2013-08-28,2013,Budapest VIII. kerület,súlyos sérüléses,Egyéb szembe haladó járművek ütközése,"irányváltoztatási, haladási, bekanyarodási hiba",a balra kanyarodó jármű vezetője a  szemben egyenesen haladó és jobbra kanyarodó járműnek nem biztosított elsőbbséget,47.4962444444444,19.0704333333333,0,1,1,2,POINT (651732.0782501437 239145.55053422853),jármű-jármű,0809 - Blaha Lujza tér M (2062)  Blaha Lujza tér
2013-08-31,2013,Budapest VIII. kerület,könnyű sérüléses,"Keresztirányból érkező járművek ütközése, az egyik jármű BALRA  kanyarodik.",elsőbbség meg nem adása,a közúti jelzőtáblák utasítása ellenére,47.4926111111111,19.0831916666667,0,0,1,2,POINT (652693.5391448799 238741.96100234316),jármű-jármű,[' Szerdahelyi utca']
2013-09-01,2013,Budapest VIII. kerület,könnyű sérüléses,Gyalogos elütése útkereszteződésben nem kijelölt gyalogos-átkelőhelyen,"irányváltoztatási, haladási, bekanyarodási hiba",szabálytalan hátramenet,47.4893805555556,19.0869555555556,0,0,1,1,POINT (652977.3267369851 238382.93591971722),gyalogos, Kálvária tér
2013-09-05,2013,Budapest VIII. kerület,könnyű sérüléses,Egyéb egyjárműves (magányos) közlekedési baleset,sebesség nem megfelelő alkalmazása,"az útviszonyokhoz (az út vonalvezetéséhez, útburkolat minőségéhez)",47.4795055555556,19.0971277777778,0,0,1,1,POINT (653744.538321161 237285.50962444273),egy jármű,[' Magyarok Nagyasszonya tér']
2013-09-11,2013,Budapest VIII. kerület,könnyű sérüléses,Gyalogos elütése útkereszteződésben kijelölt gyalogos-átkelőhelyen,egyéb,"rendőr, vagy lámpa jelzésre nem állt  meg",47.4827,19.0788166666667,0,0,3,1,POINT (652364.3066288221 237639.9558955647),gyalogos,['Nemzeti Dohánybolt']
2013-09-13,2013,Budapest VIII. kerület,könnyű sérüléses,Egyéb közlekedési baleset gyalogossal,gyalogosok hibája,"vigyázatlan, hirtelen lelépés az úttestre",47.4927416666667,19.0710083333333,0,0,1,2,POINT (651775.5136283527 238756.1405311049),gyalogos,Rákóczi tér M  József körút
2013-09-17,2013,Budapest VIII. kerület,súlyos sérüléses,"Egyéb keresztirányból érkező, kanyarodó járműütközések",elsőbbség meg nem adása,a jobbról érkező járműnek,47.4929694444444,19.0711222222222,0,1,0,2,POINT (651784.0878979857 238781.46624520008),jármű-jármű,[]
2013-09-17,2013,Budapest VIII. kerület,könnyű sérüléses,"Pályaelhagyás járművel egyenes úton, a menetirány szerinti JOBB oldalon és szilárd tárgynak ütközés az útpályán kívül (fa, oszlop, támfal stb.)",egyéb,háziállatok az úttesten,45.0371444444444,10.7874805555556,0,0,1,2,POINT (0.23896893626079 144.0263402867131),egy jármű,
2013-09-18,2013,Budapest VIII. kerület,könnyű sérüléses,Egyéb közlekedési baleset gyalogossal,egyéb,egyéb,47.4897694444444,19.1087305555556,0,0,1,1,POINT (654618.1523910619 238427.20496334793),jármű-jármű,Hidegkuti Nándor Stadion  Hungária körút
2013-09-24,2013,Budapest VIII. kerület,könnyű sérüléses,Gyalogos elütése útkereszteződésben kijelölt gyalogos-átkelőhelyen,elsőbbség meg nem adása,gyalogosoknak kijelölt gyalogátkelőhelyen,47.4886305555556,19.0969833333333,0,0,1,1,POINT (653733.0233600803 238299.97412559035),gyalogos,"['249-es épület', ' 23', ' Kőbányai út']"
2013-09-28,2013,Budapest VIII. kerület,könnyű sérüléses,"Egyéb, azonos irányba haladó kanyarodó járművek  ütközése.","irányváltoztatási, haladási, bekanyarodási hiba",forgalmi sáv szabálytalan változtatása,47.4948555555556,19.0623916666667,0,0,1,2,POINT (651126.2027508774 238991.00212395794),gyalogos,"['Mobi', ' Rákóczi út']"
2013-10-03,2013,Budapest VIII. kerület,könnyű sérüléses,"Azonos irányból érkező járművek ütközése útkereszteződésben, az egyik jármű BALRA kanyarodik",egyéb,"rendőr, vagy lámpa jelzésre nem állt  meg",47.47948611111111,19.0903305555556,0,0,1,2,POINT (653232.2381113856 237283.05193695772),jármű-jármű,"['Nagyvárad tér M', ' Orczy út']"
2013-10-03,2013,Budapest VIII. kerület,könnyű sérüléses,ütközés BALRÓL JOBBRA történő sávváltás közben,"irányváltoztatási, haladási, bekanyarodási hiba",forgalmi sáv szabálytalan változtatása,47.4780722222222,19.0920944444444,0,0,1,2,POINT (653365.2686194194 237125.93568116694),jármű-jármű,A. épület  86  Üllői út
2013-10-03,2013,Budapest VIII. kerület,könnyű sérüléses,"Egyéb keresztirányból érkező, kanyarodó járműütközések","irányváltoztatási, haladási, bekanyarodási hiba",a balra kanyarodó jármű vezetője a  szemben egyenesen haladó és jobbra kanyarodó járműnek nem biztosított elsőbbséget,47.4862194444444,19.0926388888889,0,0,1,2,POINT (653405.7934616095 238031.72509356803),jármű-jármű,"[' Orczy út', ' Orczy Fórum Városközpont']"
2013-10-03,2013,Budapest VIII. kerület,könnyű sérüléses,ütközés JOBBRÓL elinduló járművel,"irányváltoztatási, haladási, bekanyarodási hiba",kerékpáros nem adott elsőbbséget,47.4929694444444,19.0711222222222,0,0,1,2,POINT (651784.0878979857 238781.46624520008),jármű-jármű,
2013-10-04,2013,Budapest VIII. kerület,súlyos sérüléses,Gyalogos elütése útkereszteződésben kijelölt gyalogos-átkelőhelyen,elsőbbség meg nem adása,gyalogosoknak kijelölt gyalogátkelőhelyen,47.4891638888889,19.086425,0,1,0,1,POINT (652937.3582914117 238358.82848528674),gyalogos,['Baross utca']
2013-10-07,2013,Budapest VIII. kerület,könnyű sérüléses,"Keresztirányból érkező, egyenesen haladó járművek ütközése",elsőbbség meg nem adása,a közúti jelzőtáblák utasítása ellenére,47.4964416666667,19.0832166666667,0,0,1,2,POINT (652695.2341710503 239167.8248771435),jármű-jármű,['Dologház utca']
